"","number","contractName","name","address","banking","bonus","status","lastUpdate","connected","overflow","shape","position.latitude","position.longitude","totalStands.capacity","totalStands.availabilities.bikes","totalStands.availabilities.stands","totalStands.availabilities.mechanicalBikes","totalStands.availabilities.electricalBikes","totalStands.availabilities.electricalInternalBatteryBikes","totalStands.availabilities.electricalRemovableBatteryBikes","mainStands.capacity","mainStands.availabilities.bikes","mainStands.availabilities.stands","mainStands.availabilities.mechanicalBikes","mainStands.availabilities.electricalBikes","mainStands.availabilities.electricalInternalBatteryBikes","mainStands.availabilities.electricalRemovableBatteryBikes","overflowStands.capacity","overflowStands.availabilities.bikes","overflowStands.availabilities.stands","overflowStands.availabilities.mechanicalBikes","overflowStands.availabilities.electricalBikes","overflowStands.availabilities.electricalInternalBatteryBikes","overflowStands.availabilities.electricalRemovableBatteryBikes","region"
"1",2010,"lyon","2010 - CONFLUENCE / DARSE","ANGLE ALLEE ANDRE MURE ET QUAI ANTOINE RIBOUD",TRUE,FALSE,"OPEN","2023-10-06T11:49:53Z",TRUE,FALSE,NA,45.743317,4.815747,22,0,20,0,2,0,2,22,0,20,0,2,0,2,NA,NA,NA,NA,NA,NA,NA," 69002"
"2",5015,"lyon","5015 - FULCHIRON","Devant le n°41 rue de la Quarantaine",TRUE,FALSE,"OPEN","2023-10-06T11:49:47Z",TRUE,FALSE,NA,45.75197,4.821662,19,8,10,7,2,0,2,19,8,10,7,2,0,2,NA,NA,NA,NA,NA,NA,NA," 69005"
"3",32001,"lyon","32001 - COUZON - CENTRE","",TRUE,FALSE,"OPEN","2023-10-06T11:41:41Z",TRUE,FALSE,NA,45.846034,4.832409,17,6,11,3,3,0,3,17,6,11,3,3,0,3,NA,NA,NA,NA,NA,NA,NA," 69270"
"4",6004,"lyon","6004 - FOCH","Angle rue Vendôme",TRUE,FALSE,"OPEN","2023-10-06T11:49:52Z",TRUE,FALSE,NA,45.768896,4.844845,20,1,19,1,0,0,0,20,1,19,1,0,0,0,NA,NA,NA,NA,NA,NA,NA," 69006"
"5",7035,"lyon","7035 - MARSEILLE / UNIVERSITÉ","Angle rue de Marseille",TRUE,FALSE,"OPEN","2023-10-06T11:49:57Z",TRUE,FALSE,NA,45.750945,4.83927,40,22,18,6,16,0,16,40,22,18,6,16,0,16,NA,NA,NA,NA,NA,NA,NA," 69007"
"6",10120,"lyon","10120 - SALENGRO / DESCARTES","41 AV. ROGER SALENGRO (VILLEURBANNE)",TRUE,FALSE,"OPEN","2023-10-06T11:49:43Z",TRUE,FALSE,NA,45.776239,4.871634,15,12,3,2,10,0,10,15,12,3,2,10,0,10,NA,NA,NA,NA,NA,NA,NA," 69100"
"7",5016,"lyon","5016 - POINT DU JOUR / GRANGES","Devant la mairie du 5°",FALSE,TRUE,"OPEN","2023-10-06T11:43:31Z",TRUE,FALSE,NA,45.756204,4.802727,13,6,7,6,0,0,0,13,6,7,6,0,0,0,NA,NA,NA,NA,NA,NA,NA," 69005"
"8",9013,"lyon","9013 - QUAI PAUL SÉDALLIAN","Angle rue de la Navigation",FALSE,FALSE,"OPEN","2023-10-06T11:47:46Z",TRUE,FALSE,NA,45.787522,4.814418,20,14,6,7,7,0,7,20,14,6,7,7,0,7,NA,NA,NA,NA,NA,NA,NA," 69009"
"9",10028,"lyon","10028 - ECOLE DE MUSIQUE","Cours de la République/Angle Anatole France",TRUE,FALSE,"OPEN","2023-10-06T11:47:09Z",TRUE,FALSE,NA,45.767467,4.874032,24,9,15,2,7,0,7,24,9,15,2,7,0,7,NA,NA,NA,NA,NA,NA,NA,"69003"
"10",6041,"lyon","6041 - CITÉ INTERNATIONALE / TÊTE D'OR NORD","50 QUAI ACHILLE LIGNON",FALSE,FALSE,"OPEN","2023-10-06T11:43:55Z",TRUE,FALSE,NA,45.78458,4.859664,22,1,21,0,1,0,1,22,1,21,0,1,0,1,NA,NA,NA,NA,NA,NA,NA,"69005"
"11",10011,"lyon","10011 - GRATTE-CIEL","174 COURS EMILE ZOLA",TRUE,FALSE,"OPEN","2023-10-06T11:48:29Z",TRUE,FALSE,NA,45.769226,4.880491,16,0,14,0,1,0,1,16,0,14,0,1,0,1,NA,NA,NA,NA,NA,NA,NA," 69100"
"12",15002,"lyon","15002 - ST PRIEST - CITE BERLIET","",FALSE,FALSE,"OPEN","2023-10-06T11:47:06Z",TRUE,FALSE,NA,45.70597,4.900886,20,3,17,2,1,0,1,20,3,17,2,1,0,1,NA,NA,NA,NA,NA,NA,NA,"69100"
"13",10005,"lyon","10005 - 11 NOVEMBRE","Face Entrée du Parc de la Tête d'Or**",FALSE,FALSE,"OPEN","2023-10-06T11:46:30Z",TRUE,FALSE,NA,45.779702,4.860029,35,24,11,15,9,0,9,35,24,11,15,9,0,9,NA,NA,NA,NA,NA,NA,NA," 69100"
"14",4012,"lyon","4012 - PLACE ADRIEN GODIEN","Angle montée de la Boucle",TRUE,FALSE,"OPEN","2023-10-06T11:48:47Z",TRUE,FALSE,NA,45.778767,4.841109,30,2,28,2,0,0,0,30,2,28,2,0,0,0,NA,NA,NA,NA,NA,NA,NA,"69009"
"15",11004,"lyon","11004 - CALUIRE - BRANLY / PASTEUR","",FALSE,FALSE,"OPEN","2023-10-06T11:44:34Z",TRUE,FALSE,NA,45.79169,4.843452,15,6,9,5,1,0,1,15,6,9,5,1,0,1,NA,NA,NA,NA,NA,NA,NA,"69003"
"16",16002,"lyon","16002 - VÉNISSIEUX - LÉVY / VIENNE","",FALSE,FALSE,"OPEN","2023-10-06T11:43:13Z",TRUE,FALSE,NA,45.719399,4.854681,18,1,16,1,0,0,0,18,1,16,1,0,0,0,NA,NA,NA,NA,NA,NA,NA,"69002"
"17",3009,"lyon","3009 - MUSEE AFRICAIN","133 COURS GAMBETTA",FALSE,FALSE,"OPEN","2023-10-06T11:40:00Z",TRUE,FALSE,NA,45.750251,4.857919,22,0,20,1,0,0,0,22,0,20,1,0,0,0,NA,NA,NA,NA,NA,NA,NA,"69007"
"18",10122,"lyon","10122 - VERDUN / DESGRAND","17 RUE DE VERDUN (VILLEURBANNE)",FALSE,FALSE,"OPEN","2023-10-06T11:44:32Z",TRUE,FALSE,NA,45.784023,4.897102,21,16,5,8,8,0,8,21,16,5,8,8,0,8,NA,NA,NA,NA,NA,NA,NA,"69008"
"19",16001,"lyon","16001 - VENISSIEUX - PLACE ROMAND","",TRUE,FALSE,"OPEN","2023-10-06T11:48:13Z",TRUE,FALSE,NA,45.725891,4.858428,20,19,0,15,5,0,5,20,19,0,15,5,0,5,NA,NA,NA,NA,NA,NA,NA,"69005"
"20",7038,"lyon","7038 - PLACE STALINGRAD","Angle Rue de la Guillotiere",FALSE,FALSE,"OPEN","2023-10-06T11:47:16Z",TRUE,FALSE,NA,45.749622,4.85299,13,1,12,1,0,0,0,13,1,12,1,0,0,0,NA,NA,NA,NA,NA,NA,NA,"69001"
"21",10091,"lyon","10091 - CHÂTEAU GAILLARD / FORT","28 RUE DU CHÂTEAU GAILLARD (VILLEURBANNE)",TRUE,FALSE,"OPEN","2023-10-06T11:48:17Z",TRUE,FALSE,NA,45.774754,4.887977,16,3,13,2,1,0,1,16,3,13,2,1,0,1,NA,NA,NA,NA,NA,NA,NA,"69002"
"22",2021,"lyon","2021 - RAMBAUD / ECOLE DU CINÉMA","",FALSE,FALSE,"OPEN","2023-10-06T11:49:20Z",TRUE,FALSE,NA,45.745824,4.817176,30,17,13,6,11,0,11,30,17,13,6,11,0,11,NA,NA,NA,NA,NA,NA,NA,"69100"
"23",4025,"lyon","4025 - CHAZIÈRE","29 RUE CHAZIERE",FALSE,TRUE,"OPEN","2023-10-06T11:45:15Z",TRUE,FALSE,NA,45.775425,4.817888,20,2,18,2,0,0,0,20,2,18,2,0,0,0,NA,NA,NA,NA,NA,NA,NA,"69007"
"24",10113,"lyon","10113 - GARE DE VILLEURBANNE","49 AV. GENERAL LECLERC (VILLEURBANNE)",TRUE,FALSE,"OPEN","2023-10-06T11:46:08Z",TRUE,FALSE,NA,45.755768,4.891542,22,10,12,2,8,0,8,22,10,12,2,8,0,8,NA,NA,NA,NA,NA,NA,NA,"69006"
"25",4023,"lyon","4023 - PONT MASARYK","Face au 45 quai Gillet",TRUE,FALSE,"OPEN","2023-10-06T11:49:23Z",TRUE,FALSE,NA,45.778175,4.810716,22,3,19,1,2,0,2,22,3,19,1,2,0,2,NA,NA,NA,NA,NA,NA,NA,"69003"
"26",3066,"lyon","3066 - KIMMERLING / FAURE","139 AV. FELIX FAURE",FALSE,FALSE,"OPEN","2023-10-06T11:48:29Z",TRUE,FALSE,NA,45.754296,4.86359,19,3,16,2,1,0,1,19,3,16,2,1,0,1,NA,NA,NA,NA,NA,NA,NA," 69003"
"27",10111,"lyon","10111 - CHARLES HERNU","",FALSE,FALSE,"OPEN","2023-10-06T11:48:39Z",TRUE,FALSE,NA,45.770309,4.86196,20,12,8,7,5,0,5,20,12,8,7,5,0,5,NA,NA,NA,NA,NA,NA,NA,"69006"
"28",5040,"lyon","5040 - PLACE CRÉPU","7 PLACE BENOIT CREPU",TRUE,FALSE,"OPEN","2023-10-06T11:49:16Z",TRUE,FALSE,NA,45.757847,4.826103,20,7,13,2,5,0,5,20,7,13,2,5,0,5,NA,NA,NA,NA,NA,NA,NA," 69005"
"29",7008,"lyon","7008 - JEAN JAURÈS / GUILLOTIÈRE","Avenue Jean Jaurès - Angle rue de la Guillotière",TRUE,FALSE,"OPEN","2023-10-06T11:49:21Z",TRUE,FALSE,NA,45.75251,4.846278,10,0,9,1,0,0,0,10,0,9,1,0,0,0,NA,NA,NA,NA,NA,NA,NA," 69007"
"30",7024,"lyon","7024 - BANCEL / CHEVREUL","6 RUE BANCEL",TRUE,FALSE,"OPEN","2023-10-06T11:47:27Z",TRUE,FALSE,NA,45.748504,4.840505,21,9,12,6,3,0,3,21,9,12,6,3,0,3,NA,NA,NA,NA,NA,NA,NA," 69007"
"31",2023,"lyon","2023 -  PERRACHE / PETIT","Entre rue Victor Hugo et rue d'Auvergne",FALSE,FALSE,"OPEN","2023-10-06T11:43:38Z",TRUE,FALSE,NA,45.7444746076792,4.82671963006449,18,2,16,0,2,0,2,18,2,16,0,2,0,2,NA,NA,NA,NA,NA,NA,NA," 69002"
"32",8029,"lyon","8029 - ETATS-UNIS / LÉVIGNE","81 BVD DES Etats-Unis",FALSE,FALSE,"OPEN","2023-10-06T11:47:14Z",TRUE,FALSE,NA,45.732366,4.865101,20,7,13,3,4,0,4,20,7,13,3,4,0,4,NA,NA,NA,NA,NA,NA,NA,"69200"
"33",4004,"lyon","4004 - HÉNON","Angle rue Hénon",TRUE,TRUE,"OPEN","2023-10-06T11:46:20Z",TRUE,FALSE,NA,45.779786,4.827635,22,1,21,1,0,0,0,22,1,21,1,0,0,0,NA,NA,NA,NA,NA,NA,NA,"69002"
"34",8061,"lyon","8061 - STADE VUILLERMET","164 AV. PAUL SANTY",TRUE,FALSE,"OPEN","2023-10-06T11:42:50Z",TRUE,FALSE,NA,45.725403,4.881292,18,13,4,5,8,0,8,18,13,4,5,8,0,8,NA,NA,NA,NA,NA,NA,NA,"69002"
"35",1023,"lyon","1023 - CROIX ROUSSE / PERFETTI","16 BVD DE LA CROIX-ROUSSE",FALSE,TRUE,"OPEN","2023-10-06T11:40:55Z",TRUE,FALSE,NA,45.772229,4.819389,20,0,20,0,0,0,0,20,0,20,0,0,0,0,NA,NA,NA,NA,NA,NA,NA,"69100"
"36",7003,"lyon","7003 - GAMBETTA / GARIBALDI","Cours Gambette - Prolongement rue Rachais",TRUE,FALSE,"OPEN","2023-10-06T11:47:48Z",TRUE,FALSE,NA,45.751827,4.8526,40,12,28,9,3,0,3,40,12,28,9,3,0,3,NA,NA,NA,NA,NA,NA,NA,"69002"
"37",7030,"lyon","7030 - QUARTIER GENERAL FRERE","33 Boulevard Yves Farge 69007 Lyon",TRUE,FALSE,"OPEN","2023-10-06T11:48:09Z",TRUE,FALSE,NA,45.743163,4.834165,30,3,26,1,3,0,3,30,3,26,1,3,0,3,NA,NA,NA,NA,NA,NA,NA,"69100"
"38",6042,"lyon","6042 - CITÉ INTERNATIONALE / RÉSIDENCE HÔTELIÈRE","devant la résidence hôtelière à l'ouest de la place publique",TRUE,FALSE,"OPEN","2023-10-06T11:48:11Z",TRUE,FALSE,NA,45.784812,4.856432,28,16,11,9,8,0,8,28,16,11,9,8,0,8,NA,NA,NA,NA,NA,NA,NA," 69006"
"39",2013,"lyon","2013 - CÉLESTINS","Côté nord de la place, vers l'ascenseur",FALSE,FALSE,"OPEN","2023-10-06T11:47:15Z",TRUE,FALSE,NA,45.759932,4.832111,22,13,3,3,10,0,10,22,13,3,3,10,0,10,NA,NA,NA,NA,NA,NA,NA,"69003"
"40",3086,"lyon","3086 - FEUILLAT / LACASSAGNE","76 AV. LACASSAGNE",TRUE,FALSE,"OPEN","2023-10-06T11:46:51Z",TRUE,FALSE,NA,45.749563,4.875934,16,0,16,0,0,0,0,16,0,16,0,0,0,0,NA,NA,NA,NA,NA,NA,NA,"69008"
"41",8025,"lyon","8025 - DUMONT / JOUVET","12 RUE SANTOS DUMONT",FALSE,FALSE,"OPEN","2023-10-06T11:46:22Z",TRUE,FALSE,NA,45.744447,4.860889,17,0,17,0,0,0,0,17,0,17,0,0,0,0,NA,NA,NA,NA,NA,NA,NA," 69008"
"42",3050,"lyon","3050 - FRICHE RVI","5 rue Félix Rollet 69003 Lyon",FALSE,FALSE,"OPEN","2023-10-06T11:42:49Z",TRUE,FALSE,NA,45.748346,4.875955,20,0,20,0,0,0,0,20,0,20,0,0,0,0,NA,NA,NA,NA,NA,NA,NA,"69008"
"43",8056,"lyon","8056 - DELORE / AUDIBERT ET LAVIROTTE","69 RUE AUDIBERT ET LAVIROTTE",FALSE,FALSE,"OPEN","2023-10-06T11:49:20Z",TRUE,FALSE,NA,45.73586,4.856888,18,3,15,2,1,0,1,18,3,15,2,1,0,1,NA,NA,NA,NA,NA,NA,NA,"69003"
"44",10119,"lyon","10119 - VILLEURBANNE SAINT-JEAN","2 RUE DES ACACIAS VILLEURBANNE",TRUE,FALSE,"OPEN","2023-10-06T11:40:40Z",TRUE,FALSE,NA,45.780422,4.904505,12,2,10,1,1,0,1,12,2,10,1,1,0,1,NA,NA,NA,NA,NA,NA,NA,"69005"
"45",7053,"lyon","7053 - JAURÈS / THIBAUDIÈRE","26 RUE DE LA THIBAUDIERE",TRUE,FALSE,"OPEN","2023-10-06T11:49:32Z",TRUE,FALSE,NA,45.750344,4.845048,28,0,27,1,0,0,0,28,0,27,1,0,0,0,NA,NA,NA,NA,NA,NA,NA," 69007"
"46",3012,"lyon","3012 - PLACE DU CHÂTEAU","A côté de l'église",TRUE,FALSE,"OPEN","2023-10-06T11:49:13Z",TRUE,FALSE,NA,45.749565,4.887311,25,2,23,2,0,0,0,25,2,23,2,0,0,0,NA,NA,NA,NA,NA,NA,NA," 69003"
"47",4009,"lyon","4009 - JACQUARD / DENFERT-ROCHEREAU","Rue Denfert-Rochereau / Angle rue Jacquart",FALSE,TRUE,"OPEN","2023-10-06T11:46:22Z",TRUE,FALSE,NA,45.77591,4.825394,14,0,14,0,0,0,0,14,0,14,0,0,0,0,NA,NA,NA,NA,NA,NA,NA," 69004"
"48",10089,"lyon","10089 - COLIN / PERRONCEL","Rue Colin - Angle rue Alexis Perroncel",FALSE,FALSE,"OPEN","2023-10-06T11:49:02Z",TRUE,FALSE,NA,45.774581,4.87406,15,7,8,5,2,0,2,15,7,8,5,2,0,2,NA,NA,NA,NA,NA,NA,NA,"69002"
"49",1031,"lyon","1031 - PLACE DE LA PAIX","Place de la Paix - En face de La Poste",TRUE,FALSE,"OPEN","2023-10-06T11:49:22Z",TRUE,FALSE,NA,45.768023,4.831733,20,3,17,3,0,0,0,20,3,17,3,0,0,0,NA,NA,NA,NA,NA,NA,NA,"69005"
"50",3037,"lyon","3037 - PAUL BERT / GARIBALDI","Rue Paul Bert",TRUE,FALSE,"OPEN","2023-10-06T11:48:41Z",TRUE,FALSE,NA,45.757112,4.853405,21,8,12,7,1,0,1,21,8,12,7,1,0,1,NA,NA,NA,NA,NA,NA,NA," 69003"
"51",8035,"lyon","8035 - SANS SOUCI","54 COURS ALBERT THOMAS",TRUE,FALSE,"OPEN","2023-10-06T11:48:53Z",TRUE,FALSE,NA,45.747251,4.865386,20,3,17,2,1,0,1,20,3,17,2,1,0,1,NA,NA,NA,NA,NA,NA,NA,"69002"
"52",5045,"lyon","5045 - VALDO / RIVET","64 RUE JEUNET",TRUE,TRUE,"OPEN","2023-10-06T11:49:21Z",TRUE,FALSE,NA,45.750497,4.788819,18,7,11,7,0,0,0,18,7,11,7,0,0,0,NA,NA,NA,NA,NA,NA,NA,"69003"
"53",13001,"lyon","13001 - DECINES - CENTRE","",TRUE,FALSE,"OPEN","2023-10-06T11:41:05Z",TRUE,FALSE,NA,45.771902,4.955721,20,12,8,0,12,0,12,20,12,8,0,12,0,12,NA,NA,NA,NA,NA,NA,NA," 69150"
"54",6035,"lyon","6035 - CITÉ INTERNATIONALE","Face parvis du palais des congrès",FALSE,FALSE,"OPEN","2023-10-06T11:47:20Z",TRUE,FALSE,NA,45.785456,4.854085,21,10,11,4,6,0,6,21,10,11,4,6,0,6,NA,NA,NA,NA,NA,NA,NA,"69300"
"55",1036,"lyon","1036 - AVEYRON","158 BVD DE LA CROIX-ROUSSE",TRUE,TRUE,"OPEN","2023-10-06T11:46:25Z",TRUE,FALSE,NA,45.774366,4.832716,17,0,17,0,0,0,0,17,0,17,0,0,0,0,NA,NA,NA,NA,NA,NA,NA,"69003"
"56",6022,"lyon","6022 - PLACE MARÉCHAL LYAUTEY","Pierre Corneille/cours Franklin Roosevelt",TRUE,FALSE,"OPEN","2023-10-06T11:47:06Z",TRUE,FALSE,NA,45.769383,4.842364,20,2,18,1,1,0,1,20,2,18,1,1,0,1,NA,NA,NA,NA,NA,NA,NA,"69005"
"57",9020,"lyon","9020 - BOURBONNAIS","Angle rue Horand / rue Masset",TRUE,FALSE,"OPEN","2023-10-06T11:49:38Z",TRUE,FALSE,NA,45.773468,4.800286,12,3,9,3,1,0,1,12,3,9,3,1,0,1,NA,NA,NA,NA,NA,NA,NA,"69003"
"58",2027,"lyon","2027 - PERRACHE EST","",FALSE,FALSE,"OPEN","2023-10-06T11:44:23Z",TRUE,FALSE,NA,45.746163,4.82548,20,8,12,3,5,0,5,20,8,12,3,5,0,5,NA,NA,NA,NA,NA,NA,NA,"69008"
"59",2016,"lyon","2016 - PLACE REGAUD","Angle rue Tupin / rue Herriot",TRUE,FALSE,"OPEN","2023-10-06T11:48:38Z",TRUE,FALSE,NA,45.763065,4.83425,12,0,12,0,0,0,0,12,0,12,0,0,0,0,NA,NA,NA,NA,NA,NA,NA," 69002"
"60",3080,"lyon","3080 - PART-DIEU / VILLETTE","55 RUE DE LA VILLETTE",TRUE,FALSE,"OPEN","2023-10-06T11:47:50Z",TRUE,FALSE,NA,45.760042,4.861734,30,16,13,5,12,0,12,30,16,13,5,12,0,12,NA,NA,NA,NA,NA,NA,NA,"69100"
"61",5029,"lyon","5029 - PLACE GERSON","Prox. Quai Pierre Scize",FALSE,FALSE,"OPEN","2023-10-06T11:45:27Z",TRUE,FALSE,NA,45.767057,4.827014,20,8,12,5,3,0,3,20,8,12,5,3,0,3,NA,NA,NA,NA,NA,NA,NA," 69005"
"62",2004,"lyon","2004 - PERRACHE / CARNOT","16 PLACE CARNOT",TRUE,FALSE,"OPEN","2023-10-06T11:49:52Z",TRUE,FALSE,NA,45.750116,4.82801,18,18,0,9,9,0,9,18,18,0,9,9,0,9,NA,NA,NA,NA,NA,NA,NA,"69250"
"63",14001,"lyon","14001 - BRON - CENTRE NAUTIQUE","",FALSE,FALSE,"OPEN","2023-10-06T11:41:55Z",TRUE,FALSE,NA,45.742932,4.90863,13,2,11,1,1,0,1,13,2,11,1,1,0,1,NA,NA,NA,NA,NA,NA,NA,"69003"
"64",7009,"lyon","7009 - JEAN JAURÈS","174–180 Avenue Jean Jaurès 69007 Lyon",TRUE,FALSE,"OPEN","2023-10-06T11:49:37Z",TRUE,FALSE,NA,45.737503,4.837484,16,7,9,6,1,0,1,16,7,9,6,1,0,1,NA,NA,NA,NA,NA,NA,NA,"69008"
"65",7045,"lyon","7045 - PARC DES BERGES","40 AV. LECLERC",TRUE,FALSE,"OPEN","2023-10-06T11:49:16Z",TRUE,FALSE,NA,45.737745,4.824495,25,3,22,1,2,0,2,25,3,22,1,2,0,2,NA,NA,NA,NA,NA,NA,NA,"69002"
"66",3101,"lyon","3101 - PATINOIRE BARABAN","55 RUE DE BARABAN",TRUE,FALSE,"OPEN","2023-10-06T11:46:09Z",TRUE,FALSE,NA,45.762055,4.868486,20,4,16,4,0,0,0,20,4,16,4,0,0,0,NA,NA,NA,NA,NA,NA,NA,"69001"
"67",4021,"lyon","4021 - TABAREAU","Angle Bvd de la Croix-Rousse",FALSE,TRUE,"OPEN","2023-10-06T11:43:45Z",TRUE,FALSE,NA,45.774061,4.82516,10,0,10,0,0,0,0,10,0,10,0,0,0,0,NA,NA,NA,NA,NA,NA,NA," 69004"
"68",3103,"lyon","3103 - PLACE DANTON","3 PLACE DANTON",TRUE,FALSE,"OPEN","2023-10-06T11:49:24Z",TRUE,FALSE,NA,45.7548502313005,4.85748756866509,18,7,11,6,1,0,1,18,7,11,6,1,0,1,NA,NA,NA,NA,NA,NA,NA,"69120"
"69",6031,"lyon","6031 - LAFAYETTE / CORNEILLE","Angle cours Lafayette",FALSE,FALSE,"OPEN","2023-10-06T11:47:10Z",TRUE,FALSE,NA,45.763717,4.843791,13,0,11,1,1,0,1,13,0,11,1,1,0,1,NA,NA,NA,NA,NA,NA,NA," 69006"
"70",9049,"lyon","9049 - SERGENT BERTHET / GORGE DE LOUP","23 RUE GORGE DE LOUP",FALSE,FALSE,"OPEN","2023-10-06T11:46:10Z",TRUE,FALSE,NA,45.770136,4.80516,16,3,13,1,2,0,2,16,3,13,1,2,0,2,NA,NA,NA,NA,NA,NA,NA," 69009"
"71",3017,"lyon","3017 - SAXE / DUNOIR","",TRUE,FALSE,"OPEN","2023-10-06T11:48:43Z",TRUE,FALSE,NA,45.760912,4.845291,37,8,29,5,3,0,3,37,8,29,5,3,0,3,NA,NA,NA,NA,NA,NA,NA,"69005"
"72",9009,"lyon","9009 - BERLIOZ / CHALINEL","",FALSE,TRUE,"OPEN","2023-10-06T11:47:47Z",TRUE,FALSE,NA,45.801192,4.825451,15,9,6,4,5,0,5,15,9,6,4,5,0,5,NA,NA,NA,NA,NA,NA,NA," 69009"
"73",10021,"lyon","10021 - GRANDCLÉMENT","Angle cours Tolstoï",TRUE,FALSE,"OPEN","2023-10-06T11:49:02Z",TRUE,FALSE,NA,45.759743,4.889938,19,0,19,0,0,0,0,19,0,19,0,0,0,0,NA,NA,NA,NA,NA,NA,NA,"69100"
"74",7023,"lyon","7023 - BERTHELOT / ROUTE DE VIENNE","Route de Vienne - Angle avenue Berthelot",TRUE,FALSE,"OPEN","2023-10-06T11:48:02Z",TRUE,FALSE,NA,45.742639,4.850538,15,2,13,2,0,0,0,15,2,13,2,0,0,0,NA,NA,NA,NA,NA,NA,NA,"69120"
"75",6044,"lyon","6044 - CHARMETTES / BELLECOMBE","23 RUE DE LA VIABERT",TRUE,FALSE,"OPEN","2023-10-06T11:48:36Z",TRUE,FALSE,NA,45.766372,4.865058,16,10,6,9,1,0,1,16,10,6,9,1,0,1,NA,NA,NA,NA,NA,NA,NA,"69006"
"76",3008,"lyon","3008 - INSTITUT LUMIERE","105 COURS ALBERT THOMAS",TRUE,FALSE,"OPEN","2023-10-06T11:47:52Z",TRUE,FALSE,NA,45.745828,4.870631,18,2,15,1,2,0,2,18,2,15,1,2,0,2,NA,NA,NA,NA,NA,NA,NA,"69100"
"77",3040,"lyon","3040 - FAURE / DANTON","",FALSE,FALSE,"OPEN","2023-10-06T11:48:00Z",TRUE,FALSE,NA,45.753528,4.857784,35,8,27,5,3,0,3,35,8,27,5,3,0,3,NA,NA,NA,NA,NA,NA,NA,"69100"
"78",8042,"lyon","8042 - FRANCIS DE PRESSENSÉ","73 RUE CAZENEUVE",FALSE,FALSE,"OPEN","2023-10-06T11:45:41Z",TRUE,FALSE,NA,45.731361,4.860139,22,16,6,6,10,0,10,22,16,6,6,10,0,10,NA,NA,NA,NA,NA,NA,NA," 69008"
"79",9044,"lyon","9044 - MASSET / SAINT-PIERRE DE VAISE","20 AV. JOANNES MASSET",FALSE,FALSE,"OPEN","2023-10-06T11:48:58Z",TRUE,FALSE,NA,45.770508,4.800869,16,15,1,8,7,0,7,16,15,1,8,7,0,7,NA,NA,NA,NA,NA,NA,NA,"69009"
"80",28001,"lyon","28001 - FONTAINES S/S - QUAI SIMON","",TRUE,FALSE,"OPEN","2023-10-06T11:48:10Z",TRUE,FALSE,NA,45.832495,4.848795,20,8,12,6,2,0,2,20,8,12,6,2,0,2,NA,NA,NA,NA,NA,NA,NA," 69270"
"81",10075,"lyon","10075 - GABRIEL PÉRI","Angle cours André Philip",FALSE,FALSE,"OPEN","2023-10-06T11:49:40Z",TRUE,FALSE,NA,45.772277,4.865774,12,5,7,4,1,0,1,12,5,7,4,1,0,1,NA,NA,NA,NA,NA,NA,NA," 69100"
"82",4006,"lyon","4006 - PHILIPPE DE LASSALLE","Angle rue Anselme, face à l'IUFM",FALSE,TRUE,"OPEN","2023-10-06T11:48:50Z",TRUE,FALSE,NA,45.773358,4.821234,23,1,22,0,1,0,1,23,1,22,0,1,0,1,NA,NA,NA,NA,NA,NA,NA,"69800"
"83",6017,"lyon","6017 - LAFAYETTE / INKERMANN","",TRUE,FALSE,"OPEN","2023-10-06T11:49:05Z",TRUE,FALSE,NA,45.764062,4.865802,30,6,24,2,4,0,4,30,6,24,2,4,0,4,NA,NA,NA,NA,NA,NA,NA,"69009"
"84",2036,"lyon","2036 - PLACE ANTONIN GOURJU","11 PLACE ANTONIN GOURJU",TRUE,FALSE,"OPEN","2023-10-06T11:48:43Z",TRUE,FALSE,NA,45.759494,4.830161,30,8,22,3,5,0,5,30,8,22,3,5,0,5,NA,NA,NA,NA,NA,NA,NA,"69200"
"85",6002,"lyon","6002 - PORTE DES ENFANTS DU RHÔNE","Le long des grilles, côté ouest de la porte",TRUE,FALSE,"OPEN","2023-10-06T11:49:56Z",TRUE,FALSE,NA,45.777521,4.844922,40,3,37,2,1,0,1,40,3,37,2,1,0,1,NA,NA,NA,NA,NA,NA,NA,"69002"
"86",6032,"lyon","6032 - PRÉFECTURE / SARRAIL","Angle rue Vauban",TRUE,FALSE,"OPEN","2023-10-06T11:49:52Z",TRUE,FALSE,NA,45.764821,4.841567,20,2,18,2,0,0,0,20,2,18,2,0,0,0,NA,NA,NA,NA,NA,NA,NA,"69001"
"87",8055,"lyon","8055 - SAINT-ROMAIN / BERLIET","",TRUE,FALSE,"OPEN","2023-10-06T11:47:42Z",TRUE,FALSE,NA,45.74222,4.860219,20,0,19,0,1,0,1,20,0,19,0,1,0,1,NA,NA,NA,NA,NA,NA,NA,"69300"
"88",10016,"lyon","10016 - PLACE DE LA PAIX","10 PLACE DE LA PAIX (VILLEURBANNE)",FALSE,FALSE,"OPEN","2023-10-06T11:47:42Z",TRUE,FALSE,NA,45.752074,4.91466,17,1,16,0,1,0,1,17,1,16,0,1,0,1,NA,NA,NA,NA,NA,NA,NA,"69007"
"89",7033,"lyon","7033 - SAINT-LUC / SAINT-JOSEPH","Sur le quai haut",TRUE,FALSE,"OPEN","2023-10-06T11:49:34Z",TRUE,FALSE,NA,45.749431,4.834816,33,18,15,6,12,0,12,33,18,15,6,12,0,12,NA,NA,NA,NA,NA,NA,NA,"69009"
"90",7041,"lyon","7041 - DOMER / CHEVREUL","Rue Domer/angle rue Chevreul",FALSE,FALSE,"OPEN","2023-10-06T11:47:12Z",TRUE,FALSE,NA,45.746681,4.844455,12,2,10,2,0,0,0,12,2,10,2,0,0,0,NA,NA,NA,NA,NA,NA,NA,"69100"
"91",3090,"lyon","3090 - VINATIER","",TRUE,FALSE,"OPEN","2023-10-06T11:48:33Z",TRUE,FALSE,NA,45.741922,4.894068,20,16,4,7,9,0,9,20,16,4,7,9,0,9,NA,NA,NA,NA,NA,NA,NA,"69007"
"92",8008,"lyon","8008 - BEAUVISAGE / PRESSENSÉ","Rue du Professeur Beauvisage",FALSE,FALSE,"OPEN","2023-10-06T11:40:21Z",TRUE,FALSE,NA,45.727881,4.86355,17,4,13,1,3,0,3,17,4,13,1,3,0,3,NA,NA,NA,NA,NA,NA,NA,"69100"
"93",3071,"lyon","3071 - BIOPARC","angle ave Rockfeller / cours Eugénie face au Bioparc",FALSE,FALSE,"OPEN","2023-10-06T11:46:20Z",TRUE,FALSE,NA,45.740492,4.888084,20,6,14,2,4,0,4,20,6,14,2,4,0,4,NA,NA,NA,NA,NA,NA,NA," 69003"
"94",5006,"lyon","5006 - QUAI ROMAIN ROLLAND","Face ancien Palais de Justice",TRUE,FALSE,"OPEN","2023-10-06T11:49:54Z",TRUE,FALSE,NA,45.7620452080746,4.82872732991442,17,11,6,9,2,0,2,17,11,6,9,2,0,2,NA,NA,NA,NA,NA,NA,NA,"69003"
"95",10014,"lyon","10014 - LAURENT BONNEVAY / ASTROBALLE","64 AV. MARCEL CERDAN",FALSE,FALSE,"OPEN","2023-10-06T11:45:34Z",TRUE,FALSE,NA,45.765214,4.909808,28,3,25,2,1,0,1,28,3,25,2,1,0,1,NA,NA,NA,NA,NA,NA,NA,"69007"
"96",10004,"lyon","10004 - TONKIN","Rue Salvador Allende / Angle promenade du Lys",FALSE,FALSE,"OPEN","2023-10-06T11:48:13Z",TRUE,FALSE,NA,45.776217,4.862636,10,3,7,0,3,0,3,10,3,7,0,3,0,3,NA,NA,NA,NA,NA,NA,NA,"69300"
"97",1013,"lyon","1013 - MARTINIÈRE","Rue de la Martinière",TRUE,FALSE,"OPEN","2023-10-06T11:47:39Z",TRUE,FALSE,NA,45.768223,4.827533,11,0,11,0,0,0,0,11,0,11,0,0,0,0,NA,NA,NA,NA,NA,NA,NA,"69100"
"98",26001,"lyon","26001 - ST DIDIER","",FALSE,FALSE,"OPEN","2023-10-06T11:45:52Z",TRUE,FALSE,NA,45.791621,4.808426,17,0,17,0,0,0,0,17,0,17,0,0,0,0,NA,NA,NA,NA,NA,NA,NA," 69370"
"99",9010,"lyon","9010 - PISCINE DE VAISE","37 AV. SIDOINE APOLLINAIRE",FALSE,FALSE,"OPEN","2023-10-06T11:43:58Z",TRUE,FALSE,NA,45.771034,4.79644,19,12,7,5,7,0,7,19,12,7,5,7,0,7,NA,NA,NA,NA,NA,NA,NA," 69009"
"100",6028,"lyon","6028 - RÉCAMIER / TÊTE D'OR","Angle rue Tête d'Or",FALSE,FALSE,"OPEN","2023-10-06T11:49:06Z",TRUE,FALSE,NA,45.764345,4.853492,16,16,0,10,6,0,6,16,16,0,10,6,0,6,NA,NA,NA,NA,NA,NA,NA,"69007"
"101",10034,"lyon","10034 - DOCTEUR DAMIDOT","Devant la MJC",FALSE,FALSE,"OPEN","2023-10-06T11:45:12Z",TRUE,FALSE,NA,45.761825,4.886156,18,2,16,1,1,0,1,18,2,16,1,1,0,1,NA,NA,NA,NA,NA,NA,NA," 69100"
"102",3058,"lyon","3058 - PLACE DU LAC","Face à la poste",FALSE,FALSE,"OPEN","2023-10-06T11:45:56Z",TRUE,FALSE,NA,45.758974,4.853599,19,14,5,6,8,0,8,19,14,5,6,8,0,8,NA,NA,NA,NA,NA,NA,NA," 69003"
"103",6045,"lyon","6045 - BROTTEAUX / VAUBAN","44 BVD DES BROTTEAUX",TRUE,FALSE,"OPEN","2023-10-06T11:47:43Z",TRUE,FALSE,NA,45.766284,4.856848,15,11,4,3,8,0,8,15,11,4,3,8,0,8,NA,NA,NA,NA,NA,NA,NA,"69008"
"104",5047,"lyon","5047 - ALBÉRIC PONT","2B RUE DR. ALBERIC PONT",FALSE,FALSE,"OPEN","2023-10-06T11:40:30Z",TRUE,FALSE,NA,45.753452,4.804401,16,6,10,6,0,0,0,16,6,10,6,0,0,0,NA,NA,NA,NA,NA,NA,NA,"69100"
"105",8053,"lyon","8053 - LUMIERE / TROUILHET","6 RUE ANTOINE LUMIERE",FALSE,FALSE,"OPEN","2023-10-06T11:49:57Z",TRUE,FALSE,NA,45.743569,4.870083,16,1,12,3,0,0,0,16,1,12,3,0,0,0,NA,NA,NA,NA,NA,NA,NA,"69001"
"106",9008,"lyon","9008 - L'ILE BARBE","3 QUAI PAUL SEDAILLAN",TRUE,FALSE,"OPEN","2023-10-06T11:47:37Z",TRUE,FALSE,NA,45.797415,4.829038,16,12,4,10,2,0,2,16,12,4,10,2,0,2,NA,NA,NA,NA,NA,NA,NA," 69009"
"107",9046,"lyon","9046 - MANGINI","",TRUE,FALSE,"OPEN","2023-10-06T11:45:21Z",TRUE,FALSE,NA,45.790414,4.816359,24,7,17,2,5,0,5,24,7,17,2,5,0,5,NA,NA,NA,NA,NA,NA,NA,"69006"
"108",4042,"lyon","4042 - GREGORY COUPET","94 RUE PHILIPPE DE LASALLE",FALSE,TRUE,"OPEN","2023-10-06T11:47:30Z",TRUE,FALSE,NA,45.781699,4.820596,16,1,15,1,0,0,0,16,1,15,1,0,0,0,NA,NA,NA,NA,NA,NA,NA,"69100"
"109",10053,"lyon","10053 - ROSSELINI / 11 NOVEMBRE","Bd du 11 novembre angle av. Claude Bernard",FALSE,FALSE,"OPEN","2023-10-06T11:48:47Z",TRUE,FALSE,NA,45.77939,4.863068,30,22,8,9,13,0,13,30,22,8,9,13,0,13,NA,NA,NA,NA,NA,NA,NA," 69100"
"110",6039,"lyon","6039 - GARIBALDI / BUGEAUD","",TRUE,FALSE,"OPEN","2023-10-06T11:46:29Z",TRUE,FALSE,NA,45.766708,4.852073,20,5,15,2,3,0,3,20,5,15,2,3,0,3,NA,NA,NA,NA,NA,NA,NA,"69007"
"111",10110,"lyon","10110 - MÉMOIRE ET SOCIÉTÉ","20 RUE VALENTIN HAUY (VILLEURBANNE)",FALSE,FALSE,"OPEN","2023-10-06T11:48:19Z",TRUE,FALSE,NA,45.75958,4.882739,24,2,22,2,0,0,0,24,2,22,2,0,0,0,NA,NA,NA,NA,NA,NA,NA," 69100"
"112",6021,"lyon","6021 - GARIBALDI","Entre rue Crillon et rue Sully",FALSE,FALSE,"OPEN","2023-10-06T11:49:13Z",TRUE,FALSE,NA,45.770664,4.849946,11,5,6,3,2,0,2,11,5,6,3,2,0,2,NA,NA,NA,NA,NA,NA,NA,"69009"
"113",5053,"lyon","5053 - SAINT-JUST","1 PLACE DE L'ABBE LARUE",FALSE,TRUE,"OPEN","2023-10-06T11:42:34Z",TRUE,FALSE,NA,45.75597,4.818904,18,0,18,0,0,0,0,18,0,18,0,0,0,0,NA,NA,NA,NA,NA,NA,NA,"69001"
"114",8058,"lyon","8058 - LONGEFER / KRUGER","10 RUE PDT P. KRUGER",FALSE,FALSE,"OPEN","2023-10-06T11:49:52Z",TRUE,FALSE,NA,45.738671,4.878117,16,8,8,5,3,0,3,16,8,8,5,3,0,3,NA,NA,NA,NA,NA,NA,NA,"69006"
"115",2037,"lyon","2037 - PLACE DES ARCHIVES","12 COURS CHARLEMAGNE",TRUE,FALSE,"OPEN","2023-10-06T11:47:08Z",TRUE,FALSE,NA,45.747956,4.824898,40,12,28,7,5,0,5,40,12,28,7,5,0,5,NA,NA,NA,NA,NA,NA,NA,"69003"
"116",14004,"lyon","14004 - BRON - MAIRIE","",TRUE,FALSE,"OPEN","2023-10-06T11:43:59Z",TRUE,FALSE,NA,45.73403,4.908777,23,7,16,4,3,0,3,23,7,16,4,3,0,3,NA,NA,NA,NA,NA,NA,NA," 69500"
"117",2026,"lyon","2026 - RÉPUBLIQUE / PAUFIQUE","Angle rue de la République",FALSE,FALSE,"OPEN","2023-10-06T11:49:04Z",TRUE,FALSE,NA,45.759379,4.835414,28,24,4,15,9,0,9,28,24,4,15,9,0,9,NA,NA,NA,NA,NA,NA,NA," 69002"
"118",22001,"lyon","22001 - STE FOY - PLACE ST LUC","",TRUE,FALSE,"OPEN","2023-10-06T11:47:09Z",TRUE,FALSE,NA,45.749588,4.800967,15,3,12,1,2,0,2,15,3,12,1,2,0,2,NA,NA,NA,NA,NA,NA,NA," 69110"
"119",9003,"lyon","9003 - PLACE VALMY","Rue Roquette / angle rue de Bourgogne",FALSE,FALSE,"OPEN","2023-10-06T11:46:57Z",TRUE,FALSE,NA,45.775679,4.805314,16,14,1,5,10,0,10,16,14,1,5,10,0,10,NA,NA,NA,NA,NA,NA,NA,"69100"
"120",2038,"lyon","2038 - REMPARTS D'AINAY","16 RUE DES REMPARTS D'AINAY",FALSE,FALSE,"OPEN","2023-10-06T11:46:07Z",TRUE,FALSE,NA,45.753077,4.829706,24,24,0,13,11,0,11,24,24,0,13,11,0,11,NA,NA,NA,NA,NA,NA,NA," 69002"
"121",8054,"lyon","8054 - MARTINIÈRE / MONPLAISIR","34 RUE ANTOINE LUMIERE",TRUE,FALSE,"OPEN","2023-10-06T11:49:17Z",TRUE,FALSE,NA,45.740865,4.868244,20,8,12,6,2,0,2,20,8,12,6,2,0,2,NA,NA,NA,NA,NA,NA,NA,"69003"
"122",7039,"lyon","7039 - GUILLOTIÈRE / MADELEINE","Angle rue de la Madeleine",FALSE,FALSE,"OPEN","2023-10-06T11:46:58Z",TRUE,FALSE,NA,45.751073,4.848018,10,0,10,0,0,0,0,10,0,10,0,0,0,0,NA,NA,NA,NA,NA,NA,NA," 69007"
"123",2012,"lyon","2012 - GAILLETON","3 PLACE GAILLETON",FALSE,FALSE,"OPEN","2023-10-06T11:45:24Z",TRUE,FALSE,NA,45.753455,4.833367,16,16,0,9,7,0,7,16,16,0,9,7,0,7,NA,NA,NA,NA,NA,NA,NA,"69004"
"124",7006,"lyon","7006 - GERLAND","Avenue Jean Jaurès - Au niveau du square Galtier",TRUE,FALSE,"OPEN","2023-10-06T11:47:57Z",TRUE,FALSE,NA,45.727494,4.831145,40,36,4,22,14,0,14,40,36,4,22,14,0,14,NA,NA,NA,NA,NA,NA,NA,"69007"
"125",8023,"lyon","8023 - MERMOZ / PINEL","",TRUE,FALSE,"OPEN","2023-10-06T11:47:39Z",TRUE,FALSE,NA,45.730788,4.887513,23,7,16,7,0,0,0,23,7,16,7,0,0,0,NA,NA,NA,NA,NA,NA,NA,"69004"
"126",8011,"lyon","8011 - PLACE LEBRET","Côté route de Vienne",FALSE,FALSE,"OPEN","2023-10-06T11:47:12Z",TRUE,FALSE,NA,45.735653,4.853042,14,6,8,2,4,0,4,14,6,8,2,4,0,4,NA,NA,NA,NA,NA,NA,NA,"69100"
"127",1006,"lyon","1006- SUBSISTANCES","12 QUAI ST VINCENT",FALSE,FALSE,"OPEN","2023-10-06T11:49:06Z",TRUE,FALSE,NA,45.767912,4.819872,22,8,13,3,5,0,5,22,8,13,3,5,0,5,NA,NA,NA,NA,NA,NA,NA,"69003"
"128",4002,"lyon","4002 - MAIRIE DU 4E","Devant la mairie du 4°",TRUE,TRUE,"OPEN","2023-10-06T11:45:44Z",TRUE,FALSE,NA,45.774193,4.827743,20,1,19,1,0,0,0,20,1,19,1,0,0,0,NA,NA,NA,NA,NA,NA,NA,"69100"
"129",20003,"lyon","20003 - OULLINS - PONT BLANC","",FALSE,FALSE,"OPEN","2023-10-06T11:44:54Z",TRUE,FALSE,NA,45.720156,4.798426,24,16,8,1,15,0,15,24,16,8,1,15,0,15,NA,NA,NA,NA,NA,NA,NA,"69002"
"130",3081,"lyon","3081 - PART-DIEU / FRANCFORT","44 RUE MAURICE FLANDIN 69003 LYON",TRUE,FALSE,"OPEN","2023-10-06T11:49:00Z",TRUE,FALSE,NA,45.760689,4.863069,28,24,0,12,16,0,16,28,24,0,12,16,0,16,NA,NA,NA,NA,NA,NA,NA," 69003"
"131",4007,"lyon","4007 - PLACE FLAMMARION","Côté Rue Philippe de Lassalle",FALSE,TRUE,"OPEN","2023-10-06T11:49:16Z",TRUE,FALSE,NA,45.779332,4.820259,18,0,17,1,0,0,0,18,0,17,1,0,0,0,NA,NA,NA,NA,NA,NA,NA," 69004"
"132",30002,"lyon","30002 - RILLIEUX - LOUP PENDU","",FALSE,TRUE,"OPEN","2023-10-06T11:41:55Z",TRUE,FALSE,NA,45.815973,4.887019,18,6,12,4,2,0,2,18,6,12,4,2,0,2,NA,NA,NA,NA,NA,NA,NA," 69140"
"133",3011,"lyon","3011 - PART-DIEU / CUIRASSIERS","",TRUE,FALSE,"OPEN","2023-10-06T11:50:01Z",TRUE,FALSE,NA,45.75991,4.857555,59,49,10,28,21,0,21,59,49,10,28,21,0,21,NA,NA,NA,NA,NA,NA,NA,"69003"
"134",10092,"lyon","10092 - MONTGOLFIER / CHATEAU GAILLARD","3 RUE DU CHAMP DE L'ORME (VILLEURBANNE)",FALSE,FALSE,"OPEN","2023-10-06T11:43:53Z",TRUE,FALSE,NA,45.771561,4.890378,17,0,16,0,0,0,0,17,0,16,0,0,0,0,NA,NA,NA,NA,NA,NA,NA," 69100"
"135",10024,"lyon","10024 - MAISONS NEUVES","Place des Maisons Neuves/Côté rue Jean Jaurès",TRUE,FALSE,"OPEN","2023-10-06T11:47:23Z",TRUE,FALSE,NA,45.755988,4.877409,23,0,23,0,0,0,0,23,0,23,0,0,0,0,NA,NA,NA,NA,NA,NA,NA,"69100"
"136",1034,"lyon","1034 - CARMÉLITES","30 MONTEE DES CARMELITES",FALSE,FALSE,"OPEN","2023-10-06T11:44:13Z",TRUE,FALSE,NA,45.770006,4.829274,16,0,16,0,0,0,0,16,0,16,0,0,0,0,NA,NA,NA,NA,NA,NA,NA,"69001"
"137",3013,"lyon","3013 - PLACE ANTOINETTE","Place Antoinette",FALSE,FALSE,"OPEN","2023-10-06T11:47:33Z",TRUE,FALSE,NA,45.753683,4.889285,21,7,14,1,6,0,6,21,7,14,1,6,0,6,NA,NA,NA,NA,NA,NA,NA," 69003"
"138",10008,"lyon","10008 - SALENGRO / VAILLANT","Rue Roger Salengro - Angle rue Vaillant",TRUE,FALSE,"OPEN","2023-10-06T11:47:06Z",TRUE,FALSE,NA,45.778385,4.879673,24,3,21,2,1,0,1,24,3,21,2,1,0,1,NA,NA,NA,NA,NA,NA,NA," 69100"
"139",3083,"lyon","3083 - LES HALLES","118 RUE MONCEY",FALSE,FALSE,"OPEN","2023-10-06T11:47:34Z",TRUE,FALSE,NA,45.761595,4.850477,18,15,3,6,9,0,9,18,15,3,6,9,0,9,NA,NA,NA,NA,NA,NA,NA,"69100"
"140",6024,"lyon","6024 - TRONCHET / ANATOLE FRANCE","Angle bvd Anatole France",FALSE,FALSE,"OPEN","2023-10-06T11:47:47Z",TRUE,FALSE,NA,45.770743,4.856713,10,1,9,1,0,0,0,10,1,9,1,0,0,0,NA,NA,NA,NA,NA,NA,NA,"69004"
"141",8006,"lyon","8006 - PLACE DU 8 MAI 1945","Rue Professeur Beauvisage/Angle bd des Etats-Unis",FALSE,FALSE,"OPEN","2023-10-06T11:48:33Z",TRUE,FALSE,NA,45.729771,4.868157,20,12,7,5,8,0,8,20,12,7,5,8,0,8,NA,NA,NA,NA,NA,NA,NA,"69100"
"142",23001,"lyon","23001 - TASSIN - TUILERIES","",TRUE,TRUE,"OPEN","2023-10-06T11:48:01Z",TRUE,FALSE,NA,45.763244,4.778641,12,2,10,1,1,0,1,12,2,10,1,1,0,1,NA,NA,NA,NA,NA,NA,NA," 69160"
"143",9052,"lyon","9052 - BALMONT","360 BVD DE BALMONT",FALSE,TRUE,"OPEN","2023-10-06T11:46:02Z",TRUE,FALSE,NA,45.789194,4.799308,12,0,12,0,0,0,0,12,0,12,0,0,0,0,NA,NA,NA,NA,NA,NA,NA,"69007"
"144",12002,"lyon","12002 - VAULX - POUDRETTE / LA SOIE","Face au 2 rue de la Poudrette, Vaulx en Velin",FALSE,FALSE,"OPEN","2023-10-06T11:47:51Z",TRUE,FALSE,NA,45.76438,4.919276,20,3,17,2,1,0,1,20,3,17,2,1,0,1,NA,NA,NA,NA,NA,NA,NA," 69100"
"145",6033,"lyon","6033 - CRÉQUI / LAFAYETTE","153 RUE CREQUI",FALSE,FALSE,"OPEN","2023-10-06T11:48:14Z",TRUE,FALSE,NA,45.763755,4.847082,15,9,6,2,7,0,7,15,9,6,2,7,0,7,NA,NA,NA,NA,NA,NA,NA," 69006"
"146",10012,"lyon","10012 - ZOLA / FRANCE","Rue de France/Angle Cours Emile Zola",FALSE,FALSE,"OPEN","2023-10-06T11:49:06Z",TRUE,FALSE,NA,45.767957,4.887232,16,6,10,1,5,0,5,16,6,10,1,5,0,5,NA,NA,NA,NA,NA,NA,NA,"69100"
"147",10123,"lyon","10123 - SAINT JEAN CANAL","",FALSE,FALSE,"OPEN","2023-10-06T11:43:38Z",TRUE,FALSE,NA,45.776646,4.902366,12,0,12,0,0,0,0,12,0,12,0,0,0,0,NA,NA,NA,NA,NA,NA,NA,"69100"
"148",4022,"lyon","4022 - PLACE DE LA CROIX-ROUSSE","Prox. Grande rue de la Croix-Rousse",FALSE,TRUE,"OPEN","2023-10-06T11:42:25Z",TRUE,FALSE,NA,45.77608,4.832543,21,0,21,0,0,0,0,21,0,21,0,0,0,0,NA,NA,NA,NA,NA,NA,NA,"69004"
"149",10047,"lyon","10047 - LHERMINIER / PRESSENSÉ","Avenue du Cdt Lherminier/Angle rue F. de Pressensé",FALSE,FALSE,"OPEN","2023-10-06T11:48:34Z",TRUE,FALSE,NA,45.771143,4.88504,15,6,8,2,4,0,4,15,6,8,2,4,0,4,NA,NA,NA,NA,NA,NA,NA,"69100"
"150",7021,"lyon","7021 - CHALLEMEL LACOUR / GERLAND","176–180 Rue de Gerland 69007 Lyon",FALSE,FALSE,"OPEN","2023-10-06T11:47:53Z",TRUE,FALSE,NA,45.729791,4.838138,12,2,10,1,1,0,1,12,2,10,1,1,0,1,NA,NA,NA,NA,NA,NA,NA," 69007"
"151",3004,"lyon","3004 - BOURSE DU TRAVAIL","Angle rue Moncey / Part-Dieu",TRUE,FALSE,"OPEN","2023-10-06T11:49:31Z",TRUE,FALSE,NA,45.759648,4.848139,27,16,11,3,13,0,13,27,16,11,3,13,0,13,NA,NA,NA,NA,NA,NA,NA,"69006"
"152",3016,"lyon","3016 - LIBERTÉ / PART-DIEU","Angle rue de la Part-Dieu",TRUE,FALSE,"OPEN","2023-10-06T11:44:33Z",TRUE,FALSE,NA,45.759361,4.842308,18,12,5,8,5,0,5,18,12,5,8,5,0,5,NA,NA,NA,NA,NA,NA,NA," 69003"
"153",2003,"lyon","2003 - PLACE AMPÈRE","Angle Henry IV",FALSE,FALSE,"OPEN","2023-10-06T11:49:40Z",TRUE,FALSE,NA,45.753049,4.828297,10,9,1,3,6,0,6,10,9,1,3,6,0,6,NA,NA,NA,NA,NA,NA,NA," 69002"
"154",7017,"lyon","7017 - BEAUVOIR / MAROT","",FALSE,FALSE,"OPEN","2023-10-06T11:49:16Z",TRUE,FALSE,NA,45.73674,4.834106,20,8,12,4,4,0,4,20,8,12,4,4,0,4,NA,NA,NA,NA,NA,NA,NA,"69003"
"155",19001,"lyon","19001 - ST GENIS L. - MÉDIATHÈQUE","",TRUE,TRUE,"OPEN","2023-10-06T11:42:53Z",TRUE,FALSE,NA,45.697863,4.794658,12,9,3,7,2,0,2,12,9,3,7,2,0,2,NA,NA,NA,NA,NA,NA,NA,"69001"
"156",6003,"lyon","6003 - AVENUE VERGUIN","Devant l'entrée du parc",TRUE,FALSE,"OPEN","2023-10-06T11:48:20Z",TRUE,FALSE,NA,45.772846,4.856274,20,17,3,7,10,0,10,20,17,3,7,10,0,10,NA,NA,NA,NA,NA,NA,NA,"69008"
"157",7015,"lyon","7015 - TECHSUD","Rue professeur Jean Bernard angle Boulevard Chambaud de la Bruyère Lyon 7",FALSE,FALSE,"OPEN","2023-10-06T11:46:00Z",TRUE,FALSE,NA,45.7228,4.842706,12,10,2,7,3,0,3,12,10,2,7,3,0,3,NA,NA,NA,NA,NA,NA,NA,"69100"
"158",8024,"lyon","8024 - MERMOZ / MICHELET","Angle av Michelet",FALSE,FALSE,"OPEN","2023-10-06T11:48:53Z",TRUE,FALSE,NA,45.733317,4.878607,12,3,9,1,2,0,2,12,3,9,1,2,0,2,NA,NA,NA,NA,NA,NA,NA,"69100"
"159",7026,"lyon","7026 - BALDASSINI / GERLAND","",FALSE,FALSE,"OPEN","2023-10-06T11:42:54Z",TRUE,FALSE,NA,45.727691,4.837392,20,13,7,3,10,0,10,20,13,7,3,10,0,10,NA,NA,NA,NA,NA,NA,NA," 69007"
"160",24001,"lyon","24001 - ECULLY - MAIRIE","",TRUE,TRUE,"OPEN","2023-10-06T11:45:12Z",TRUE,FALSE,NA,45.775112,4.778531,12,0,12,0,0,0,0,12,0,12,0,0,0,0,NA,NA,NA,NA,NA,NA,NA,"69002"
"161",7007,"lyon","7007 - FARGE / AYASSE","Angle Bld Y. Farge / rue Commandant Ayasse",FALSE,FALSE,"OPEN","2023-10-06T11:49:49Z",TRUE,FALSE,NA,45.735741,4.827725,20,0,20,0,0,0,0,20,0,20,0,0,0,0,NA,NA,NA,NA,NA,NA,NA,"69006"
"162",8038,"lyon","8038 - ALBERT THOMAS / VILLON","Angle rue Villon",FALSE,FALSE,"OPEN","2023-10-06T11:49:04Z",TRUE,FALSE,NA,45.746691,4.867501,20,7,13,3,4,0,4,20,7,13,3,4,0,4,NA,NA,NA,NA,NA,NA,NA,"69006"
"163",10072,"lyon","10072 - JACQUES BREL","Rue Jacques Brel/angle rue Korel",FALSE,FALSE,"OPEN","2023-10-06T11:49:50Z",TRUE,FALSE,NA,45.774228,4.864269,23,22,1,14,8,0,8,23,22,1,14,8,0,8,NA,NA,NA,NA,NA,NA,NA," 69100"
"164",18001,"lyon","18001 - PIERRE BÉNITE - EUROPE","",TRUE,FALSE,"OPEN","2023-10-06T11:41:17Z",TRUE,FALSE,NA,45.703245,4.821204,15,12,3,8,4,0,4,15,12,3,8,4,0,4,NA,NA,NA,NA,NA,NA,NA,"69008"
"165",6020,"lyon","6020 - MUSÉE GUIMET","Angle rue Morellet",TRUE,FALSE,"OPEN","2023-10-06T11:47:36Z",TRUE,FALSE,NA,45.774526,4.848443,15,10,5,7,3,0,3,15,10,5,7,3,0,3,NA,NA,NA,NA,NA,NA,NA,"69100"
"166",12001,"lyon","12001 - VAULX - LA SOIE","45 RUE DE LA POUDRETTE (VILLEURBANNE)",TRUE,FALSE,"OPEN","2023-10-06T11:47:38Z",TRUE,FALSE,NA,45.760908,4.920569,25,17,8,8,9,0,9,25,17,8,8,9,0,9,NA,NA,NA,NA,NA,NA,NA,"69003"
"167",10055,"lyon","10055 - CONDORCET / GALLINE","Avenue Galline/angle av. de Condorcet",FALSE,FALSE,"OPEN","2023-10-06T11:49:51Z",TRUE,FALSE,NA,45.776428,4.866976,15,14,1,7,7,0,7,15,14,1,7,7,0,7,NA,NA,NA,NA,NA,NA,NA,"69006"
"168",6025,"lyon","6025 - PLACE D'HELVÉTIE","",TRUE,FALSE,"OPEN","2023-10-06T11:49:18Z",TRUE,FALSE,NA,45.773232,4.841949,30,1,28,1,1,0,1,30,1,28,1,1,0,1,NA,NA,NA,NA,NA,NA,NA,"69004"
"169",3094,"lyon","3094 - VILLETTE","74 RUE DE LA VILLETTE",TRUE,FALSE,"OPEN","2023-10-06T11:48:41Z",TRUE,FALSE,NA,45.757808,4.861512,38,18,20,9,9,0,9,38,18,20,9,9,0,9,NA,NA,NA,NA,NA,NA,NA,"69005"
"170",5044,"lyon","5044 - CHAMPVERT","87 RUE DOCTEUR EDMOND LOCARD",TRUE,TRUE,"OPEN","2023-10-06T11:47:50Z",TRUE,FALSE,NA,45.760056,4.798366,15,0,15,0,0,0,0,15,0,15,0,0,0,0,NA,NA,NA,NA,NA,NA,NA,"69100"
"171",3069,"lyon","3069 - DAUPHINÉ / SAINT-MAXIMIN","",FALSE,FALSE,"OPEN","2023-10-06T11:46:23Z",TRUE,FALSE,NA,45.750002,4.864587,30,19,11,11,8,0,8,30,19,11,11,8,0,8,NA,NA,NA,NA,NA,NA,NA,"69001"
"172",10006,"lyon","10006 - CHARPENNES","Place Charles Hernu / côté sud",TRUE,FALSE,"OPEN","2023-10-06T11:49:45Z",TRUE,FALSE,NA,45.770225,4.863102,46,12,33,3,10,0,10,46,12,33,3,10,0,10,NA,NA,NA,NA,NA,NA,NA," 69100"
"173",9011,"lyon","9011 - CONSERVATOIRE","Quai Chauveau / angle Pont Koenig",TRUE,FALSE,"OPEN","2023-10-06T11:49:55Z",TRUE,FALSE,NA,45.769803,4.812681,19,6,12,7,0,0,0,19,6,12,7,0,0,0,NA,NA,NA,NA,NA,NA,NA," 69009"
"174",21001,"lyon","21001 - LA MULATIERE - AQUARIUM","",TRUE,FALSE,"OPEN","2023-10-06T11:46:20Z",TRUE,FALSE,NA,45.727309,4.814779,24,8,16,5,3,0,3,24,8,16,5,3,0,3,NA,NA,NA,NA,NA,NA,NA," 69350"
"175",9015,"lyon","9015 - SAINT-CYR","",FALSE,FALSE,"OPEN","2023-10-06T11:42:00Z",TRUE,FALSE,NA,45.782855,4.807288,30,7,23,4,3,0,3,30,7,23,4,3,0,3,NA,NA,NA,NA,NA,NA,NA,"69100"
"176",6012,"lyon","6012 - PLACE PUVIS DE CHAVANNES","Angle rue Vendôme",FALSE,FALSE,"OPEN","2023-10-06T11:45:55Z",TRUE,FALSE,NA,45.771794,4.84459,10,0,10,0,0,0,0,10,0,10,0,0,0,0,NA,NA,NA,NA,NA,NA,NA,"69007"
"177",8009,"lyon","8009 - JEAN XXIII / MERMOZ","Boulevard Jean XXIII - Angle de la rue Mermoz",TRUE,FALSE,"OPEN","2023-10-06T11:46:16Z",TRUE,FALSE,NA,45.73648,4.869789,20,12,7,6,6,0,6,20,12,7,6,6,0,6,NA,NA,NA,NA,NA,NA,NA,"69100"
"178",3036,"lyon","3036 - FELIX FAURE / VIVIER MERLE","AVENUE FELIX FAURE ANGLE VIVIER MERLE. 10M AVANT VIVIER MERLE EN DIRECTION DU RHONE",FALSE,FALSE,"OPEN","2023-10-06T11:47:19Z",TRUE,FALSE,NA,45.75381,4.859795,35,19,16,9,10,0,10,35,19,16,9,10,0,10,NA,NA,NA,NA,NA,NA,NA,"69002"
"179",10073,"lyon","10073 - INSTITUT D'ART CONTEMPORAIN","Rue Docteur Dolard / Angle rue 4 Septembre",FALSE,FALSE,"OPEN","2023-10-06T11:49:48Z",TRUE,FALSE,NA,45.761468,4.872466,25,1,24,1,0,0,0,25,1,24,1,0,0,0,NA,NA,NA,NA,NA,NA,NA,"69003"
"180",2035,"lyon","2035 - CHILDEBERT / RIVIÈRE","",TRUE,FALSE,"OPEN","2023-10-06T11:48:14Z",TRUE,FALSE,NA,45.759842,4.835776,23,16,7,8,8,0,8,23,16,7,8,8,0,8,NA,NA,NA,NA,NA,NA,NA,"69003"
"181",9014,"lyon","9014 - QUAI DU COMMERCE","Angle rue Emile Duport",TRUE,FALSE,"OPEN","2023-10-06T11:47:52Z",TRUE,FALSE,NA,45.7820006188352,4.81043960203213,30,13,17,7,6,0,6,30,13,17,7,6,0,6,NA,NA,NA,NA,NA,NA,NA,"69100"
"182",3097,"lyon","3097 - AUGAGNEUR / FOSSE AUX OURS","28 QUAI VICTOR AUGAGNEUR",TRUE,FALSE,"OPEN","2023-10-06T11:48:11Z",TRUE,FALSE,NA,45.757192,4.840495,40,7,33,0,7,0,7,40,7,33,0,7,0,7,NA,NA,NA,NA,NA,NA,NA,"69100"
"183",3035,"lyon","3035 - PHILOMENE MAGNIN","",TRUE,FALSE,"OPEN","2023-10-06T11:49:34Z",TRUE,FALSE,NA,45.752453,4.858785,24,1,23,1,0,0,0,24,1,23,1,0,0,0,NA,NA,NA,NA,NA,NA,NA,"69100"
"184",9022,"lyon","9022 - MASARYK / SAINT-CYR","Angle rue Chinard/rue St Cyr",FALSE,FALSE,"OPEN","2023-10-06T11:47:53Z",TRUE,FALSE,NA,45.778639,4.8071,13,0,13,0,0,0,0,13,0,13,0,0,0,0,NA,NA,NA,NA,NA,NA,NA," 69009"
"185",3138,"lyon","3138 - VIVIER MERLE / PAUL BERT OUEST","Devant l'hôtel IBIS",FALSE,FALSE,"OPEN","2023-10-06T11:49:55Z",TRUE,FALSE,NA,45.757484,4.858386,19,16,3,6,10,0,10,19,16,3,6,10,0,10,NA,NA,NA,NA,NA,NA,NA,"69005"
"186",10112,"lyon","10112 - PLACE DE LA RECONNAISSANCE","105 ROUTE DE GENAS (VILLEURBANNE)",TRUE,FALSE,"OPEN","2023-10-06T11:45:38Z",TRUE,FALSE,NA,45.754415,4.885249,32,0,32,0,0,0,0,32,0,32,0,0,0,0,NA,NA,NA,NA,NA,NA,NA,"69003"
"187",4024,"lyon","4024 - LYON METROPOLE","FACE AU 81 QUAI JOSEPH GILLET",TRUE,FALSE,"OPEN","2023-10-06T11:45:03Z",TRUE,FALSE,NA,45.788204,4.818572,25,8,17,2,6,0,6,25,8,17,2,6,0,6,NA,NA,NA,NA,NA,NA,NA,"69008"
"188",15001,"lyon","15001 - ST PRIEST - PARC TECHNOLOGIQUE","",TRUE,FALSE,"OPEN","2023-10-06T11:46:14Z",TRUE,FALSE,NA,45.714426,4.930975,20,12,8,3,9,0,9,20,12,8,3,9,0,9,NA,NA,NA,NA,NA,NA,NA,"69100"
"189",8041,"lyon","8041 - ETATS-UNIS / VIVIANI","170 Boulevard des Etats-Unis, Angle Avenue Viviani, direction Venissieux",TRUE,FALSE,"OPEN","2023-10-06T11:46:58Z",TRUE,FALSE,NA,45.724775,4.870745,20,7,13,3,4,0,4,20,7,13,3,4,0,4,NA,NA,NA,NA,NA,NA,NA,"69003"
"190",2008,"lyon","2008 - PLACE ANTONIN PONCET","Côté rue des Marroniers",TRUE,FALSE,"OPEN","2023-10-06T11:49:33Z",TRUE,FALSE,NA,45.756775,4.833917,40,35,5,21,14,0,14,40,35,5,21,14,0,14,NA,NA,NA,NA,NA,NA,NA,"69005"
"191",7019,"lyon","7019 - CROIX BARRET / BOURDEIX","",FALSE,FALSE,"OPEN","2023-10-06T11:46:33Z",TRUE,FALSE,NA,45.736722,4.841079,32,30,2,20,10,0,10,32,30,2,20,10,0,10,NA,NA,NA,NA,NA,NA,NA,"69100"
"192",1005,"lyon","1005 - MEISSONNIER","Place Meissonier - Angle Sud-Est de la place",FALSE,FALSE,"OPEN","2023-10-06T11:47:45Z",TRUE,FALSE,NA,45.766073,4.832849,16,1,15,1,0,0,0,16,1,15,1,0,0,0,NA,NA,NA,NA,NA,NA,NA," 69001"
"193",6040,"lyon","6040 - LES HALLES","71 COURS LAFAYETTE",TRUE,FALSE,"OPEN","2023-10-06T11:48:11Z",TRUE,FALSE,NA,45.764013,4.849933,15,13,1,6,8,0,8,15,13,1,6,8,0,8,NA,NA,NA,NA,NA,NA,NA," 69006"
"194",10044,"lyon","10044 - ROCARD OCTAVIE","",FALSE,FALSE,"OPEN","2023-10-06T11:43:42Z",TRUE,FALSE,NA,45.7809037283842,4.88958755288143,25,18,7,5,13,0,13,25,18,7,5,13,0,13,NA,NA,NA,NA,NA,NA,NA,"69001"
"195",2022,"lyon","2022 - PLACE CARNOT","Angle rue Plessier",TRUE,FALSE,"OPEN","2023-10-06T11:48:13Z",TRUE,FALSE,NA,45.751233,4.82688,30,29,1,15,14,0,14,30,29,1,15,14,0,14,NA,NA,NA,NA,NA,NA,NA,"69001"
"196",4014,"lyon","4014 - PHILIPPE DE LASSALLE / PILLEMENT","Angle rue Pillement",FALSE,TRUE,"OPEN","2023-10-06T11:49:34Z",TRUE,FALSE,NA,45.777431,4.820526,13,0,13,0,0,0,0,13,0,13,0,0,0,0,NA,NA,NA,NA,NA,NA,NA,"69002"
"197",7036,"lyon","7036 - GRYPHE / MONTESQUIEU","",TRUE,FALSE,"OPEN","2023-10-06T11:49:52Z",TRUE,FALSE,NA,45.751902,4.843812,25,18,7,8,10,0,10,25,18,7,8,10,0,10,NA,NA,NA,NA,NA,NA,NA," 69007"
"198",9029,"lyon","9029 - SAINT PIERRE DE VAISE","Place Vanderpol/Angle St Pierre de Vaise",FALSE,FALSE,"OPEN","2023-10-06T11:42:05Z",TRUE,FALSE,NA,45.773125,4.807831,15,13,2,11,2,0,2,15,13,2,11,2,0,2,NA,NA,NA,NA,NA,NA,NA," 69009"
"199",3099,"lyon","3099 - PLACE SAINTE ANNE","10 PLACE SAINTE ANNE",TRUE,FALSE,"OPEN","2023-10-06T11:49:06Z",TRUE,FALSE,NA,45.757042,4.86532,18,2,16,1,1,0,1,18,2,16,1,1,0,1,NA,NA,NA,NA,NA,NA,NA," 69003"
"200",8001,"lyon","8001 - UNIVERSITÉ LYON III","Devant entrée principale de l'université",TRUE,FALSE,"OPEN","2023-10-06T11:49:58Z",TRUE,FALSE,NA,45.748535,4.861533,36,6,30,3,3,0,3,36,6,30,3,3,0,3,NA,NA,NA,NA,NA,NA,NA," 69008"
"201",3005,"lyon","3005 - SAXE / GAMBETTA","Place Victor Basch",TRUE,FALSE,"OPEN","2023-10-06T11:48:55Z",TRUE,FALSE,NA,45.75377,4.848043,26,13,13,2,11,0,11,26,13,13,2,11,0,11,NA,NA,NA,NA,NA,NA,NA," 69003"
"202",555,"lyon","0-555 - ATELIER VÉLO'V","",FALSE,FALSE,"OPEN","2023-10-06T11:49:21Z",TRUE,FALSE,NA,45.780403,4.904869,3,0,3,0,0,0,0,3,0,3,0,0,0,0,NA,NA,NA,NA,NA,NA,NA,"69002"
"203",8033,"lyon","8033 - BERTHELOT / CAZENEUVE","",FALSE,FALSE,"OPEN","2023-10-06T11:49:05Z",TRUE,FALSE,NA,45.737481,4.865503,20,4,16,1,3,0,3,20,4,16,1,3,0,3,NA,NA,NA,NA,NA,NA,NA,"69002"
"204",10058,"lyon","10058 - MÉTRO FLACHET","274 COURS EMILE ZOLA (VILLEURBANNE)",TRUE,FALSE,"OPEN","2023-10-06T11:49:27Z",TRUE,FALSE,NA,45.767051,4.892467,22,14,8,7,7,0,7,22,14,8,7,7,0,7,NA,NA,NA,NA,NA,NA,NA," 69100"
"205",8010,"lyon","8010 - PLACE MENDÈS FRANCE","95 AV. DE L'EUROPE",TRUE,FALSE,"OPEN","2023-10-06T11:47:22Z",TRUE,FALSE,NA,45.740052,4.85941,20,0,17,3,0,0,0,20,0,17,3,0,0,0,NA,NA,NA,NA,NA,NA,NA,"69100"
"206",3067,"lyon","3067 - HACHETTE","6 RUE JEAN RENOIR",FALSE,FALSE,"OPEN","2023-10-06T11:48:11Z",TRUE,FALSE,NA,45.752907,4.863923,15,4,11,1,3,0,3,15,4,11,1,3,0,3,NA,NA,NA,NA,NA,NA,NA,"69009"
"207",7055,"lyon","7055 - SERVANT / JABOULAY","23 RUE RENAN",FALSE,FALSE,"OPEN","2023-10-06T11:49:37Z",TRUE,FALSE,NA,45.746779,4.842051,16,0,16,0,0,0,0,16,0,16,0,0,0,0,NA,NA,NA,NA,NA,NA,NA,"69008"
"208",17002,"lyon","17002 - ST FONS - 4 CHEMINS","",TRUE,FALSE,"OPEN","2023-10-06T11:49:27Z",TRUE,FALSE,NA,45.708561,4.854821,11,4,7,1,3,0,3,11,4,7,1,3,0,3,NA,NA,NA,NA,NA,NA,NA,"69007"
"209",5002,"lyon","5002 - PLACE DES COMPAGNONS DE LA CHANSON","Angle rue des Aqueducs",FALSE,TRUE,"OPEN","2023-10-06T11:45:35Z",TRUE,FALSE,NA,45.756535,4.796616,18,2,16,2,0,0,0,18,2,16,2,0,0,0,NA,NA,NA,NA,NA,NA,NA,"69003"
"210",10084,"lyon","10084 - DOUA / AVENUE DES ARTS","84 avenue des Arts",TRUE,FALSE,"OPEN","2023-10-06T11:48:21Z",TRUE,FALSE,NA,45.783533,4.871294,30,28,1,14,15,0,15,30,28,1,14,15,0,15,NA,NA,NA,NA,NA,NA,NA,"69008"
"211",9042,"lyon","9042 - VAISE DOCKS","39 rue des Docks Lyon 9",FALSE,FALSE,"OPEN","2023-10-06T11:46:49Z",TRUE,FALSE,NA,45.786533,4.811446,19,11,8,6,5,0,5,19,11,8,6,5,0,5,NA,NA,NA,NA,NA,NA,NA,"69002"
"212",7013,"lyon","7013 - HALLE TONY GARNIER","93–131 Avenue Tony Garnier 69007 Lyon",TRUE,FALSE,"OPEN","2023-10-06T11:49:57Z",TRUE,FALSE,NA,45.730786,4.823733,20,15,5,9,6,0,6,20,15,5,9,6,0,6,NA,NA,NA,NA,NA,NA,NA,"69100"
"213",14003,"lyon","14003 - BRON - PLACE CURIAL","",FALSE,FALSE,"OPEN","2023-10-06T11:48:56Z",TRUE,FALSE,NA,45.736633,4.917009,25,7,18,4,3,0,3,25,7,18,4,3,0,3,NA,NA,NA,NA,NA,NA,NA," 69500"
"214",11003,"lyon","11003 - CALUIRE - LA ROCHETTE","Quai Gillet au  niveau de la place de la Rochette. Caluire et Cuire.",FALSE,FALSE,"OPEN","2023-10-06T11:48:29Z",TRUE,FALSE,NA,45.791748,4.823595,20,6,14,3,3,0,3,20,6,14,3,3,0,3,NA,NA,NA,NA,NA,NA,NA,"69002"
"215",3039,"lyon","3039 - PLACE BIR-HAKEIM","Au niveau de la rue Duvivier",FALSE,FALSE,"OPEN","2023-10-06T11:50:02Z",TRUE,FALSE,NA,45.752553,4.855756,19,5,14,5,0,0,0,19,5,14,5,0,0,0,NA,NA,NA,NA,NA,NA,NA,"69001"
"216",10023,"lyon","10023 - JAURES SAINT EXUPERY","",FALSE,FALSE,"OPEN","2023-10-06T11:48:50Z",TRUE,FALSE,NA,45.757646,4.883377,25,3,21,1,3,0,3,25,3,21,1,3,0,3,NA,NA,NA,NA,NA,NA,NA,"69002"
"217",3053,"lyon","3053 - GAMBETTA / JUSSERAND","Angle cours Gambetta",TRUE,FALSE,"OPEN","2023-10-06T11:49:34Z",TRUE,FALSE,NA,45.751123,4.855604,13,5,8,3,2,0,2,13,5,8,3,2,0,2,NA,NA,NA,NA,NA,NA,NA,"69600"
"218",2040,"lyon","2040 - ST ANTOINE / GRENETTE","12 QUAI ST AINTOINE",FALSE,FALSE,"OPEN","2023-10-06T11:47:01Z",TRUE,FALSE,NA,45.7633761875017,4.83212534541183,23,0,23,0,0,0,0,23,0,23,0,0,0,0,NA,NA,NA,NA,NA,NA,NA,"69002"
"219",20002,"lyon","20002 - OULLINS - MAIRIE","",TRUE,FALSE,"OPEN","2023-10-06T11:44:18Z",TRUE,FALSE,NA,45.714039,4.806642,18,2,16,1,1,0,1,18,2,16,1,1,0,1,NA,NA,NA,NA,NA,NA,NA,"69003"
"220",2024,"lyon","2024 - RÉPUBLIQUE / MAUPIN","Entre Herriot et République",FALSE,FALSE,"OPEN","2023-10-06T11:49:51Z",TRUE,FALSE,NA,45.758733,4.834136,25,24,1,11,13,0,13,25,24,1,11,13,0,13,NA,NA,NA,NA,NA,NA,NA,"69100"
"221",1035,"lyon","1035 - QUAI LASSAGNE","3 QUAI ANDRE LASSAGNE",TRUE,FALSE,"OPEN","2023-10-06T11:49:09Z",TRUE,FALSE,NA,45.772191,4.837917,16,0,16,0,0,0,0,16,0,16,0,0,0,0,NA,NA,NA,NA,NA,NA,NA," 69001"
"222",2014,"lyon","2014 - JACOBINS","3 RUE JEAN DE TOURNES",TRUE,FALSE,"OPEN","2023-10-06T11:48:06Z",TRUE,FALSE,NA,45.760762,4.834305,26,4,22,4,0,0,0,26,4,22,4,0,0,0,NA,NA,NA,NA,NA,NA,NA," 69002"
"223",6037,"lyon","6037 - CITÉ INTERNATIONALE / INTERPOL","Allée A. Lignon",TRUE,FALSE,"OPEN","2023-10-06T11:49:35Z",TRUE,FALSE,NA,45.782287,4.849378,27,14,13,10,4,0,4,27,14,13,10,4,0,4,NA,NA,NA,NA,NA,NA,NA," 69006"
"224",10083,"lyon","10083 - CHATEAU GAILLARD / BIENVENUS","2 RUE DES BIENVENUS",FALSE,FALSE,"OPEN","2023-10-06T11:40:21Z",TRUE,FALSE,NA,45.777873,4.884238,15,2,12,2,1,0,1,15,2,12,2,1,0,1,NA,NA,NA,NA,NA,NA,NA," 69100"
"225",2017,"lyon","2017 - RÉPUBLIQUE / FERRANDIÈRE","Rue de la République",TRUE,FALSE,"OPEN","2023-10-06T11:49:49Z",TRUE,FALSE,NA,45.762184,4.836023,25,17,8,10,7,0,7,25,17,8,10,7,0,7,NA,NA,NA,NA,NA,NA,NA," 69002"
"226",8057,"lyon","8057 - VIENNE / MONTAGNY","184 ROUTE DE VIENNE",FALSE,FALSE,"OPEN","2023-10-06T11:50:01Z",TRUE,FALSE,NA,45.732483,4.853406,20,13,7,7,6,0,6,20,13,7,7,6,0,6,NA,NA,NA,NA,NA,NA,NA,"69100"
"227",3051,"lyon","3051 - PLACE HENRI","Angle rue Docteur Long/av. Lacassagne",FALSE,FALSE,"OPEN","2023-10-06T11:45:04Z",TRUE,FALSE,NA,45.748193,4.880641,13,2,11,0,2,0,2,13,2,11,0,2,0,2,NA,NA,NA,NA,NA,NA,NA,"69005"
"228",7014,"lyon","7014 - MARSEILLE / FÉLISSENT","Rue Felissent, angle rue de Marseille",TRUE,FALSE,"OPEN","2023-10-06T11:46:52Z",TRUE,FALSE,NA,45.752989,4.841417,30,27,3,8,19,0,19,30,27,3,8,19,0,19,NA,NA,NA,NA,NA,NA,NA," 69007"
"229",8007,"lyon","8007 - FRÈRES LUMIÈRE","Angle rue Villon",TRUE,FALSE,"OPEN","2023-10-06T11:48:12Z",TRUE,FALSE,NA,45.745018,4.866424,15,6,7,4,3,0,3,15,6,7,4,3,0,3,NA,NA,NA,NA,NA,NA,NA,"69007"
"230",9006,"lyon","9006 - THÉÂTRE NOUVELLE GÉNÉRATION","Rue Tissot / angle rue de Bourgogne",TRUE,FALSE,"OPEN","2023-10-06T11:46:50Z",TRUE,FALSE,NA,45.777287,4.803297,16,2,14,0,2,0,2,16,2,14,0,2,0,2,NA,NA,NA,NA,NA,NA,NA,"69003"
"231",10032,"lyon","10032 - PRIMAT / DECORPS","Rue Antoine Primat/Angle rue Decorps",FALSE,FALSE,"OPEN","2023-10-06T11:48:49Z",TRUE,FALSE,NA,45.757173,4.89998,13,9,4,8,1,0,1,13,9,4,8,1,0,1,NA,NA,NA,NA,NA,NA,NA,"69008"
"232",8021,"lyon","8021 - PAUL SANTY","Place Général André - Face au 126 avenue Paul Santy",FALSE,FALSE,"OPEN","2023-10-06T11:47:10Z",TRUE,FALSE,NA,45.728542,4.877279,16,0,16,0,0,0,0,16,0,16,0,0,0,0,NA,NA,NA,NA,NA,NA,NA," 69008"
"233",2001,"lyon","2001 - BELLECOUR / RÉPUBLIQUE","Angle République / rue de la Barre",TRUE,FALSE,"OPEN","2023-10-06T11:49:34Z",TRUE,FALSE,NA,45.758,4.834594,18,18,0,13,5,0,5,18,18,0,13,5,0,5,NA,NA,NA,NA,NA,NA,NA,"69008"
"234",2028,"lyon","2028 - SAINTE-BLANDINE","Face station tram Ste Blandine",FALSE,FALSE,"OPEN","2023-10-06T11:45:56Z",TRUE,FALSE,NA,45.744438,4.822152,16,2,14,2,0,0,0,16,2,14,2,0,0,0,NA,NA,NA,NA,NA,NA,NA,"69100"
"235",2006,"lyon","2006 - PLACE DE L'HIPPODROME","Angle cours Charlemagne",TRUE,FALSE,"OPEN","2023-10-06T11:49:17Z",TRUE,FALSE,NA,45.745528,4.82359,24,7,17,2,5,0,5,24,7,17,2,5,0,5,NA,NA,NA,NA,NA,NA,NA,"69003"
"236",3021,"lyon","3021 - PLACE DE LA FERRANDIÈRE","Intersection Ferrandière/Jasseron",FALSE,FALSE,"OPEN","2023-10-06T11:44:46Z",TRUE,FALSE,NA,45.759488,4.869346,20,0,19,1,0,0,0,20,0,19,1,0,0,0,NA,NA,NA,NA,NA,NA,NA,"69008"
"237",8059,"lyon","8059 - LAENNEC / PINEL","173 BVD PINEL (BRON)",FALSE,FALSE,"OPEN","2023-10-06T11:41:17Z",TRUE,FALSE,NA,45.735375,4.88954,15,0,15,0,0,0,0,15,0,15,0,0,0,0,NA,NA,NA,NA,NA,NA,NA,"69003"
"238",1003,"lyon","1003 - PLACE SATHONAY","6 PLACE SATHONAY",TRUE,FALSE,"OPEN","2023-10-06T11:47:20Z",TRUE,FALSE,NA,45.769289,4.830127,22,0,21,0,0,0,0,22,0,21,0,0,0,0,NA,NA,NA,NA,NA,NA,NA,"69009"
"239",2009,"lyon","2009 - CONFLUENCE / DOCKS","Sur l'esplanade entre la rue Hrant Dink et le 40 quai Rambaud",TRUE,FALSE,"OPEN","2023-10-06T11:49:40Z",TRUE,FALSE,NA,45.739652,4.814984,26,9,17,7,2,0,2,26,9,17,7,2,0,2,NA,NA,NA,NA,NA,NA,NA,"69007"
"240",2011,"lyon","2011 - SALA / RUE DU PLAT","Face à la faculté catholique",FALSE,FALSE,"OPEN","2023-10-06T11:49:03Z",TRUE,FALSE,NA,45.756813,4.828342,14,4,10,2,2,0,2,14,4,10,2,2,0,2,NA,NA,NA,NA,NA,NA,NA,"69004"
"241",1001,"lyon","1001 - TERREAUX / TERME","Angle rue d'Algérie",FALSE,FALSE,"OPEN","2023-10-06T11:46:36Z",TRUE,FALSE,NA,45.767736,4.832114,16,13,2,12,2,0,2,16,13,2,12,2,0,2,NA,NA,NA,NA,NA,NA,NA,"69002"
"242",1016,"lyon","1016 - PÊCHERIE","Rue de la Platière - Angle quai de la Pêcherie",FALSE,FALSE,"OPEN","2023-10-06T11:46:02Z",TRUE,FALSE,NA,45.765944,4.831089,17,0,17,0,0,0,0,17,0,17,0,0,0,0,NA,NA,NA,NA,NA,NA,NA," 69001"
"243",7056,"lyon","7056 - PLACE RASPAIL","4 PLACE RASPAIL",TRUE,FALSE,"OPEN","2023-10-06T11:48:57Z",TRUE,FALSE,NA,45.755783,4.840745,22,9,13,5,4,0,4,22,9,13,5,4,0,4,NA,NA,NA,NA,NA,NA,NA,"69006"
"244",10103,"lyon","10103 - DOUA / RUE DES SPORTS","103 ave des Arts / rue des Sports",FALSE,FALSE,"OPEN","2023-10-06T11:47:10Z",TRUE,FALSE,NA,45.784526,4.877482,30,28,2,17,11,0,11,30,28,2,17,11,0,11,NA,NA,NA,NA,NA,NA,NA,"69001"
"245",10080,"lyon","10080 - VAILLANT / PERRONCEL","96 RUE ALEXIS PERRONCEL (VILLEURBANNE)",FALSE,FALSE,"OPEN","2023-10-06T11:49:22Z",TRUE,FALSE,NA,45.775409,4.880261,17,3,14,2,1,0,1,17,3,14,2,1,0,1,NA,NA,NA,NA,NA,NA,NA," 69100"
"246",5032,"lyon","5032 - MÉNIVAL / EISENHOWER","",FALSE,FALSE,"OPEN","2023-10-06T11:48:17Z",TRUE,FALSE,NA,45.756757,4.783206,12,2,10,2,0,0,0,12,2,10,2,0,0,0,NA,NA,NA,NA,NA,NA,NA," 69005"
"247",3070,"lyon","3070 - REBATEL / SAINT-MAXIMIN","",FALSE,FALSE,"OPEN","2023-10-06T11:45:59Z",TRUE,FALSE,NA,45.747835,4.872261,30,0,30,0,0,0,0,30,0,30,0,0,0,0,NA,NA,NA,NA,NA,NA,NA," 69003"
"248",10074,"lyon","10074 - ZOLA / PASSAGE REY","Cours E. Zola / Angle passage Rey",FALSE,FALSE,"OPEN","2023-10-06T11:49:29Z",TRUE,FALSE,NA,45.770099,4.876728,19,0,17,1,1,0,1,19,0,17,1,1,0,1,NA,NA,NA,NA,NA,NA,NA," 69100"
"249",8015,"lyon","8015 - JEAN XXIII","RUE MARYSE BASTIE",FALSE,FALSE,"OPEN","2023-10-06T11:45:11Z",TRUE,FALSE,NA,45.740324,4.874192,16,15,1,8,7,0,7,16,15,1,8,7,0,7,NA,NA,NA,NA,NA,NA,NA,"69004"
"250",3089,"lyon","3089 - TRARIEUX / LACASSAGNE","221 AV. LACASSAGNE",TRUE,FALSE,"OPEN","2023-10-06T11:49:55Z",TRUE,FALSE,NA,45.745304,4.888964,24,1,23,1,0,0,0,24,1,23,1,0,0,0,NA,NA,NA,NA,NA,NA,NA," 69003"
"251",5055,"lyon","5055 - BUYER / APOLLINAIRE","101 AV. BARTHELEMY BUYER",FALSE,TRUE,"OPEN","2023-10-06T11:44:07Z",TRUE,FALSE,NA,45.762013,4.802751,22,0,21,1,0,0,0,22,0,21,1,0,0,0,NA,NA,NA,NA,NA,NA,NA," 69005"
"252",10048,"lyon","10048 - PLACE MARENGO","52 AV. MARC SANGNIER (VILLEURBANNE)",FALSE,FALSE,"OPEN","2023-10-06T11:49:50Z",TRUE,FALSE,NA,45.759176,4.875958,27,2,24,2,1,0,1,27,2,24,2,1,0,1,NA,NA,NA,NA,NA,NA,NA,"69009"
"253",10115,"lyon","10115 - PLACE D'ESPAGNE / STADE KRUGER","173 AV. PAUL KRUGER (VILLEURBANNE)",TRUE,FALSE,"OPEN","2023-10-06T11:47:29Z",TRUE,FALSE,NA,45.754181,4.90528,22,3,19,0,3,0,3,22,3,19,0,3,0,3,NA,NA,NA,NA,NA,NA,NA,"69003"
"254",10045,"lyon","10045 - ALSACE ANATOLE FRANCE","",FALSE,FALSE,"OPEN","2023-10-06T11:43:56Z",TRUE,FALSE,NA,45.766921,4.870087,20,0,20,0,0,0,0,20,0,20,0,0,0,0,NA,NA,NA,NA,NA,NA,NA,"69003"
"255",3085,"lyon","3085 - SACRE COEUR","66 RUE ANTOINE CHARIAL",TRUE,FALSE,"OPEN","2023-10-06T11:48:56Z",TRUE,FALSE,NA,45.757864,4.868337,16,2,14,2,0,0,0,16,2,14,2,0,0,0,NA,NA,NA,NA,NA,NA,NA,"69009"
"256",3024,"lyon","3024 - ROCKEFELLER / ESQUIROL","Intersection Rockefeller / Esquirol",FALSE,FALSE,"OPEN","2023-10-06T11:46:45Z",TRUE,FALSE,NA,45.741336,4.885538,19,4,15,1,3,0,3,19,4,15,1,3,0,3,NA,NA,NA,NA,NA,NA,NA,"69002"
"257",2041,"lyon","2041 - SALA / CHARITÉ","44 RUE SALA",FALSE,FALSE,"OPEN","2023-10-06T11:49:48Z",TRUE,FALSE,NA,45.754468,4.833041,21,13,8,6,7,0,7,21,13,8,6,7,0,7,NA,NA,NA,NA,NA,NA,NA,"69100"
"258",10086,"lyon","10086 - ANATOLE FRANCE","Angle Rue de Préssensé / Flachet",FALSE,FALSE,"OPEN","2023-10-06T11:49:44Z",TRUE,FALSE,NA,45.769837,4.889629,10,7,3,2,5,0,5,10,7,3,2,5,0,5,NA,NA,NA,NA,NA,NA,NA,"69003"
"259",7011,"lyon","7011 - BERTHELOT / GARIBALDI","Rue Garibaldi - Angle avenue Berthelot",TRUE,FALSE,"OPEN","2023-10-06T11:43:34Z",TRUE,FALSE,NA,45.743756,4.847406,15,0,15,0,0,0,0,15,0,15,0,0,0,0,NA,NA,NA,NA,NA,NA,NA,"69008"
"260",10117,"lyon","10117 - LA PERRALIÈRE","166 RUE DU QUATRE AOUT (VILLEURBANNE)",FALSE,FALSE,"OPEN","2023-10-06T11:49:40Z",TRUE,FALSE,NA,45.764567,4.892349,22,9,13,3,6,0,6,22,9,13,3,6,0,6,NA,NA,NA,NA,NA,NA,NA," 69100"
"261",9041,"lyon","9041 - CARRET / SÉDALLIAN","10 QUAI PAUL SEDAILLAN",FALSE,FALSE,"OPEN","2023-10-06T11:49:56Z",TRUE,FALSE,NA,45.792478,4.820567,18,8,10,5,3,0,3,18,8,10,5,3,0,3,NA,NA,NA,NA,NA,NA,NA," 69009"
"262",9043,"lyon","9043 - MARIETTON OUEST","",FALSE,FALSE,"OPEN","2023-10-06T11:47:46Z",TRUE,FALSE,NA,45.776087,4.799725,20,10,10,5,5,0,5,20,10,10,5,5,0,5,NA,NA,NA,NA,NA,NA,NA," 69009"
"263",3091,"lyon","3091 - HOPITAL NEUROLOGIQUE","54 BVD PINEL",FALSE,FALSE,"OPEN","2023-10-06T11:44:57Z",TRUE,FALSE,NA,45.748286,4.896975,20,0,10,0,0,0,0,20,0,10,0,0,0,0,NA,NA,NA,NA,NA,NA,NA," 69500"
"264",1024,"lyon","1024 - ROUVILLE","PLACE ROUVILLE",FALSE,FALSE,"OPEN","2023-10-06T11:41:28Z",TRUE,FALSE,NA,45.769684,4.824607,17,0,17,0,0,0,0,17,0,17,0,0,0,0,NA,NA,NA,NA,NA,NA,NA," 69001"
"265",10035,"lyon","10035 - BOIRON GRANGER","43 RUE PIERRE BARATIN (VILLEURBANNE)",FALSE,FALSE,"OPEN","2023-10-06T11:45:46Z",TRUE,FALSE,NA,45.763139,4.900492,16,0,16,0,0,0,0,16,0,16,0,0,0,0,NA,NA,NA,NA,NA,NA,NA,"69003"
"266",5005,"lyon","5005 - SAINT-PAUL","Près de la gare de St Paul",TRUE,FALSE,"OPEN","2023-10-06T11:49:50Z",TRUE,FALSE,NA,45.766278,4.827425,23,11,12,6,5,0,5,23,11,12,6,5,0,5,NA,NA,NA,NA,NA,NA,NA,"69005"
"267",4041,"lyon","4041 - BOUSSANGES / AUSTERLITZ","25 RUE D'AUSTERLITZ",FALSE,TRUE,"OPEN","2023-10-06T11:46:09Z",TRUE,FALSE,NA,45.775070841112,4.83549930268728,18,0,18,0,0,0,0,18,0,18,0,0,0,0,NA,NA,NA,NA,NA,NA,NA,"69003"
"268",6043,"lyon","6043 - CITÉ INTERNATIONALE / CINÉMA","80 QUAI CHARLES DE GAULLE",FALSE,FALSE,"OPEN","2023-10-06T11:46:20Z",TRUE,FALSE,NA,45.784698,4.851896,32,5,27,3,2,0,2,32,5,27,3,2,0,2,NA,NA,NA,NA,NA,NA,NA," 69006"
"269",3088,"lyon","3088 - PLACE GUICHARD","65 RUE MAZENOD",FALSE,FALSE,"OPEN","2023-10-06T11:46:56Z",TRUE,FALSE,NA,45.75882,4.846453,16,1,15,0,1,0,1,16,1,15,0,1,0,1,NA,NA,NA,NA,NA,NA,NA,"69100"
"270",10059,"lyon","10059 - ANATOLE FRANCE / ZOLA","Rue Anatole France",FALSE,FALSE,"OPEN","2023-10-06T11:49:51Z",TRUE,FALSE,NA,45.76884,4.884276,13,3,10,1,2,0,2,13,3,10,1,2,0,2,NA,NA,NA,NA,NA,NA,NA,"69100"
"271",8040,"lyon","8040 - AMBROISE PARÉ","Face au 54 Boulevard Ambroise Paré",TRUE,FALSE,"OPEN","2023-10-06T11:43:51Z",TRUE,FALSE,NA,45.736289,4.883667,24,6,18,5,1,0,1,24,6,18,5,1,0,1,NA,NA,NA,NA,NA,NA,NA," 69008"
"272",9040,"lyon","9040 - PLACE RHODIACETA","1 PLACE DE LA RHODIACETA",FALSE,FALSE,"OPEN","2023-10-06T11:44:34Z",TRUE,FALSE,NA,45.770991,4.807578,12,3,9,0,3,0,3,12,3,9,0,3,0,3,NA,NA,NA,NA,NA,NA,NA," 69009"
"273",6016,"lyon","6016 - VIABERT / THIERS","Angle avenue Thiers",FALSE,FALSE,"OPEN","2023-10-06T11:49:36Z",TRUE,FALSE,NA,45.766032,4.862063,16,7,8,4,4,0,4,16,7,8,4,4,0,4,NA,NA,NA,NA,NA,NA,NA,"69100"
"274",6008,"lyon","6008 - PLACE JULES FERRY","17 PLACE JULES FERRY",TRUE,FALSE,"OPEN","2023-10-06T11:49:23Z",TRUE,FALSE,NA,45.7684,4.858972,20,6,14,5,1,0,1,20,6,14,5,1,0,1,NA,NA,NA,NA,NA,NA,NA," 69006"
"275",2019,"lyon","2019 - SUCRIERE","",TRUE,FALSE,"OPEN","2023-10-06T11:48:27Z",TRUE,FALSE,NA,45.736216,4.815348,20,12,8,7,5,0,5,20,12,8,7,5,0,5,NA,NA,NA,NA,NA,NA,NA," 69002"
"276",5004,"lyon","5004 - SAINT-JEAN","Entre la cathédrale et le funiculaire",TRUE,FALSE,"OPEN","2023-10-06T11:49:54Z",TRUE,FALSE,NA,45.760468,4.826548,39,9,29,2,8,0,8,39,9,29,2,8,0,8,NA,NA,NA,NA,NA,NA,NA," 69005"
"277",10030,"lyon","10030 - GREUZE","126 RUE DU 8 MAI 1945 (VILLEURBANNE)",FALSE,FALSE,"OPEN","2023-10-06T11:48:02Z",TRUE,FALSE,NA,45.773845,4.893851,18,0,18,0,0,0,0,18,0,18,0,0,0,0,NA,NA,NA,NA,NA,NA,NA,"69007"
"278",10118,"lyon","10118 - VOYANT / CHAMBFORT","99 RUE PIERRE VOYANT (VILLEURBANNE)",FALSE,FALSE,"OPEN","2023-10-06T11:49:34Z",TRUE,FALSE,NA,45.767194,4.900597,22,17,5,7,10,0,10,22,17,5,7,10,0,10,NA,NA,NA,NA,NA,NA,NA," 69100"
"279",8060,"lyon","8060 - SANTY / BEAUVISAGE","",FALSE,FALSE,"OPEN","2023-10-06T11:41:38Z",TRUE,FALSE,NA,45.731708,4.874205,17,0,16,1,0,0,0,17,0,16,1,0,0,0,NA,NA,NA,NA,NA,NA,NA,"69007"
"280",1022,"lyon","1022 - PLACE TOLOZAN","Place Tolozan - Angle nord-est de la place",TRUE,FALSE,"OPEN","2023-10-06T11:49:12Z",TRUE,FALSE,NA,45.769508,4.837495,36,9,27,5,4,0,4,36,9,27,5,4,0,4,NA,NA,NA,NA,NA,NA,NA," 69001"
"281",3031,"lyon","3031 - CORNEILLE / SERVIENT","Angle rue Servient",FALSE,FALSE,"OPEN","2023-10-06T11:49:02Z",TRUE,FALSE,NA,45.759906,4.844511,13,8,5,4,4,0,4,13,8,5,4,4,0,4,NA,NA,NA,NA,NA,NA,NA," 69003"
"282",10001,"lyon","10001 - IUT / FEYSSINE","rue de la Technologie",FALSE,FALSE,"OPEN","2023-10-06T11:44:07Z",TRUE,FALSE,NA,45.785632,4.882366,30,29,1,20,9,0,9,30,29,1,20,9,0,9,NA,NA,NA,NA,NA,NA,NA," 69100"
"283",3043,"lyon","3043 - PLACE ROUGET DE L'ISLE","Avenue Lacassagne",TRUE,FALSE,"OPEN","2023-10-06T11:48:44Z",TRUE,FALSE,NA,45.753975,4.867336,16,5,11,4,1,0,1,16,5,11,4,1,0,1,NA,NA,NA,NA,NA,NA,NA,"69002"
"284",6001,"lyon","6001 - GARE DES BROTTEAUX","Place Jules Ferry angle rue Général Brosset face à la gare des Brotteaux",TRUE,FALSE,"OPEN","2023-10-06T11:48:55Z",TRUE,FALSE,NA,45.766893,4.858922,16,13,2,10,4,0,4,16,13,2,10,4,0,4,NA,NA,NA,NA,NA,NA,NA,"69003"
"285",20001,"lyon","20001 - OULLINS - GARE","",TRUE,FALSE,"OPEN","2023-10-06T11:44:19Z",TRUE,FALSE,NA,45.717001,4.814072,40,40,0,7,33,0,33,40,40,0,7,33,0,33,NA,NA,NA,NA,NA,NA,NA,"69003"
"286",10114,"lyon","10114 - BEL AIR / LES BROSSES","2 AV. DU BEL AIR (VILLEURBANNE)",FALSE,FALSE,"OPEN","2023-10-06T11:44:50Z",TRUE,FALSE,NA,45.757931,4.910776,20,9,11,6,3,0,3,20,9,11,6,3,0,3,NA,NA,NA,NA,NA,NA,NA," 69100"
"287",4008,"lyon","4008 - CLOS SAVARON","",FALSE,TRUE,"OPEN","2023-10-06T11:45:10Z",TRUE,FALSE,NA,45.782631,4.825576,20,0,20,0,0,0,0,20,0,20,0,0,0,0,NA,NA,NA,NA,NA,NA,NA," 69004"
"288",10071,"lyon","10071 - LYCÉE MARIE CURIE","64 BVD EUGENE REGUILLON (VILLEURBANNE)",FALSE,FALSE,"OPEN","2023-10-06T11:43:40Z",TRUE,FALSE,NA,45.761532,4.895763,15,0,15,0,0,0,0,15,0,15,0,0,0,0,NA,NA,NA,NA,NA,NA,NA,"69100"
"289",10038,"lyon","10038 - CONDORCET","Bvd 11 Nov./prox. arret tram Condorcet",TRUE,FALSE,"OPEN","2023-10-06T11:49:29Z",TRUE,FALSE,NA,45.779062,4.866874,23,10,13,6,4,0,4,23,10,13,6,4,0,4,NA,NA,NA,NA,NA,NA,NA," 69100"
"290",10060,"lyon","10060 - SAINT EXUPÉRY","Avenue Antoine Saint Exupery",FALSE,FALSE,"OPEN","2023-10-06T11:45:55Z",TRUE,FALSE,NA,45.758874,4.878683,15,3,12,0,3,0,3,15,3,12,0,3,0,3,NA,NA,NA,NA,NA,NA,NA,"69100"
"291",4005,"lyon","4005 - PLACE BERTONE","Rue du Chariot d'Or",FALSE,TRUE,"OPEN","2023-10-06T11:47:39Z",TRUE,FALSE,NA,45.77762,4.83453,12,0,11,0,1,0,1,12,0,11,0,1,0,1,NA,NA,NA,NA,NA,NA,NA," 69004"
"292",7031,"lyon","7031 - JAURÈS / GERLAND","42 Rue de Gerland 69007 Lyon",FALSE,FALSE,"OPEN","2023-10-06T11:49:30Z",TRUE,FALSE,NA,45.739827,4.840308,20,16,4,2,14,0,14,20,16,4,2,14,0,14,NA,NA,NA,NA,NA,NA,NA,"69006"
"293",9050,"lyon","9050 - ALLEE DE L'EUROPE","AVENUE DU PLATEAU",FALSE,TRUE,"OPEN","2023-10-06T11:46:31Z",TRUE,FALSE,NA,45.783698,4.794485,12,0,12,0,0,0,0,12,0,12,0,0,0,0,NA,NA,NA,NA,NA,NA,NA,"69100"
"294",10087,"lyon","10087 - BARATIN","Face au 115 rue Pierre Baratin",TRUE,FALSE,"OPEN","2023-10-06T11:49:26Z",TRUE,FALSE,NA,45.760603,4.900702,12,1,11,0,1,0,1,12,1,11,0,1,0,1,NA,NA,NA,NA,NA,NA,NA,"69009"
"295",4026,"lyon","4026 - BIRMINGHAM","Avenue Birmingham, sortie tunnel mode doux côté Saöne - 69000 Lyon",TRUE,FALSE,"OPEN","2023-10-06T11:47:13Z",TRUE,FALSE,NA,45.774632,4.813425,20,5,15,4,1,0,1,20,5,15,4,1,0,1,NA,NA,NA,NA,NA,NA,NA," 69004"
"296",10041,"lyon","10041 - KIMMERLING","1 PLACE KIMMERLING (VILLEURBANNE)",FALSE,FALSE,"OPEN","2023-10-06T11:49:22Z",TRUE,FALSE,NA,45.752923,4.898891,16,8,8,4,4,0,4,16,8,8,4,4,0,4,NA,NA,NA,NA,NA,NA,NA,"69008"
"297",2020,"lyon","2020 - MUSÉE DES CONFLUENCES","Parvis du musée des confluences",TRUE,FALSE,"OPEN","2023-10-06T11:47:52Z",TRUE,FALSE,NA,45.733388,4.818954,20,4,16,1,3,0,3,20,4,16,1,3,0,3,NA,NA,NA,NA,NA,NA,NA,"69006"
"298",17003,"lyon","17003 - ST FONS - THEATRE","",FALSE,FALSE,"OPEN","2023-10-06T11:40:56Z",TRUE,FALSE,NA,45.708123,4.861905,18,7,11,2,5,0,5,18,7,11,2,5,0,5,NA,NA,NA,NA,NA,NA,NA,"69003"
"299",4001,"lyon","4001 - CONSERVATOIRE BIS","",FALSE,FALSE,"OPEN","2023-10-06T11:43:52Z",TRUE,FALSE,NA,45.770392,4.814254,22,10,12,2,8,0,8,22,10,12,2,8,0,8,NA,NA,NA,NA,NA,NA,NA,"69100"
"300",10043,"lyon","10043 - SALENGRO / FEYSSINE","RUE DE LA FEYSSINE (VILLEURBANNE)",TRUE,FALSE,"OPEN","2023-10-06T11:46:45Z",TRUE,FALSE,NA,45.782994,4.890614,20,6,14,0,6,0,6,20,6,14,0,6,0,6,NA,NA,NA,NA,NA,NA,NA,"69003"
"301",5007,"lyon","5007 - PLACE DE TRION","Place de Trion",FALSE,TRUE,"OPEN","2023-10-06T11:49:50Z",TRUE,FALSE,NA,45.757916,4.81317,16,0,14,0,0,0,0,16,0,14,0,0,0,0,NA,NA,NA,NA,NA,NA,NA,"69001"
"302",3015,"lyon","3015 - SERVIENT / GARIBALDI","Angle rue Garibaldi",FALSE,FALSE,"OPEN","2023-10-06T11:49:05Z",TRUE,FALSE,NA,45.760779,4.85276,32,20,12,8,12,0,12,32,20,12,8,12,0,12,NA,NA,NA,NA,NA,NA,NA,"69100"
"303",8037,"lyon","8037 - CAZENEUVE","Rue Paul Cazeneuve - Angle du boulevard des Etats-Unis",TRUE,FALSE,"OPEN","2023-10-06T11:43:44Z",TRUE,FALSE,NA,45.734027,4.862906,19,16,3,8,8,0,8,19,16,3,8,8,0,8,NA,NA,NA,NA,NA,NA,NA,"69100"
"304",3010,"lyon","3010 - PART-DIEU / CUIRASSIERS (FAR)","Rue des Cuirassiers Lyon 3",TRUE,FALSE,"OPEN","2023-10-06T11:46:09Z",TRUE,FALSE,NA,45.7589457457871,4.85624511710564,34,29,5,14,15,0,15,34,29,5,14,15,0,15,NA,NA,NA,NA,NA,NA,NA," 69003"
"305",7018,"lyon","7018 - LYCEE LOUISE LABE","2 Rue Crépet 69007 Lyon",FALSE,FALSE,"OPEN","2023-10-06T11:46:31Z",TRUE,FALSE,NA,45.740279,4.832061,20,0,20,0,0,0,0,20,0,20,0,0,0,0,NA,NA,NA,NA,NA,NA,NA," 69007"
"306",2015,"lyon","2015 - RÉPUBLIQUE / STELLA","Côté est de la place",TRUE,FALSE,"OPEN","2023-10-06T11:48:38Z",TRUE,FALSE,NA,45.760698,4.836279,27,9,18,5,4,0,4,27,9,18,5,4,0,4,NA,NA,NA,NA,NA,NA,NA," 69002"
"307",10056,"lyon","10056 - 11 NOVEMBRE / GASTON BERGER","Avenue du 11 Nov./angle av Gaston Berger",FALSE,FALSE,"OPEN","2023-10-06T11:47:20Z",TRUE,TRUE,NA,45.779066,4.871581,95,48,47,31,17,0,17,35,21,14,9,12,0,12,60,27,33,22,5,0,5,"69003"
"308",3029,"lyon","3029 - PLACE ARISTIDE BRIAND","Angle Gambetta",TRUE,FALSE,"OPEN","2023-10-06T11:49:24Z",TRUE,FALSE,NA,45.752967,4.850271,38,30,7,12,19,0,19,38,30,7,12,19,0,19,NA,NA,NA,NA,NA,NA,NA,"69600"
"309",10061,"lyon","10061 - RÉPUBLIQUE","Cours Emile Zola/Angle cours de la République",TRUE,FALSE,"OPEN","2023-10-06T11:48:54Z",TRUE,FALSE,NA,45.7708541,4.8726116,17,1,16,0,1,0,1,17,1,16,0,1,0,1,NA,NA,NA,NA,NA,NA,NA,"69004"
"310",4003,"lyon","4003 - PLACE COMMANDANT  ARNAUD","Angle rue de Belfort",FALSE,TRUE,"OPEN","2023-10-06T11:45:27Z",TRUE,FALSE,NA,45.779731,4.834708,17,1,16,1,0,0,0,17,1,16,1,0,0,0,NA,NA,NA,NA,NA,NA,NA,"69001"
"311",7064,"lyon","7064 - CROUS","96 RUE CHEVREUL",FALSE,FALSE,"OPEN","2023-10-06T11:48:56Z",TRUE,FALSE,NA,45.74541,4.847843,17,1,15,2,0,0,0,17,1,15,2,0,0,0,NA,NA,NA,NA,NA,NA,NA,"69008"
"312",4017,"lyon","4017 - PLACE DES TAPIS","Angle Bvd de la Croix-Rousse",FALSE,TRUE,"OPEN","2023-10-06T11:48:46Z",TRUE,FALSE,NA,45.776002,4.829628,17,0,17,0,0,0,0,17,0,17,0,0,0,0,NA,NA,NA,NA,NA,NA,NA,"69008"
"313",34001,"lyon","34001 - NEUVILLE - QUAI PASTEUR","",TRUE,FALSE,"OPEN","2023-10-06T11:44:24Z",TRUE,FALSE,NA,45.876622,4.838578,20,5,15,5,0,0,0,20,5,15,5,0,0,0,NA,NA,NA,NA,NA,NA,NA," 69250"
"314",3068,"lyon","3068 - FAURE / MEYNIS","",FALSE,FALSE,"OPEN","2023-10-06T11:49:37Z",TRUE,FALSE,NA,45.755068,4.871457,28,0,28,0,0,0,0,28,0,28,0,0,0,0,NA,NA,NA,NA,NA,NA,NA,"69002"
"315",3082,"lyon","3082 - SAXE / MONCEY","33 RUE MONCEY",FALSE,FALSE,"OPEN","2023-10-06T11:48:47Z",TRUE,FALSE,NA,45.757578,4.846117,28,7,21,4,3,0,3,28,7,21,4,3,0,3,NA,NA,NA,NA,NA,NA,NA,"69007"
"316",10046,"lyon","10046 - CHARMETTES/ZOLA","Rue des Charmettes/Angle Cours Emile Zola",TRUE,FALSE,"OPEN","2023-10-06T11:44:51Z",TRUE,FALSE,NA,45.770705,4.867201,23,0,23,0,0,0,0,23,0,23,0,0,0,0,NA,NA,NA,NA,NA,NA,NA,"69008"
"317",7046,"lyon","7046 - PLACE DE L'ECOLE","Angle rue de St Cloud",FALSE,FALSE,"OPEN","2023-10-06T11:48:29Z",TRUE,FALSE,NA,45.730083,4.82781,28,23,5,10,13,0,13,28,23,5,10,13,0,13,NA,NA,NA,NA,NA,NA,NA,"69002"
"318",7002,"lyon","7002 - UNIVERSITÉS LYON III / LYON II","Quai Claude Bernard",TRUE,FALSE,"OPEN","2023-10-06T11:49:30Z",TRUE,FALSE,NA,45.7511023770123,4.83615396294288,39,29,10,7,22,0,22,39,29,10,7,22,0,22,NA,NA,NA,NA,NA,NA,NA,"69009"
"319",3007,"lyon","3007 - PLACE D'ARSONVAL","A côté du stand de fleurs",TRUE,FALSE,"OPEN","2023-10-06T11:49:31Z",TRUE,FALSE,NA,45.743396,4.87897,32,29,3,9,20,0,20,32,29,3,9,20,0,20,NA,NA,NA,NA,NA,NA,NA," 69003"
"320",3006,"lyon","3006 - VILLETTE / SAINT-ANTOINE","",TRUE,FALSE,"OPEN","2023-10-06T11:46:39Z",TRUE,FALSE,NA,45.762876,4.862249,23,16,7,8,8,0,8,23,16,7,8,8,0,8,NA,NA,NA,NA,NA,NA,NA,"69002"
"321",6007,"lyon","6007 - MASSÉNA","Angle Cours Vitton",TRUE,FALSE,"OPEN","2023-10-06T11:49:26Z",TRUE,FALSE,NA,45.769654,4.852366,27,2,24,2,1,0,1,27,2,24,2,1,0,1,NA,NA,NA,NA,NA,NA,NA,"69500"
"322",1037,"lyon","1037 - CHAZETTE LASSAGNE","",FALSE,FALSE,"OPEN","2023-10-06T11:48:18Z",TRUE,FALSE,NA,45.77291,4.837315,20,2,18,1,1,0,1,20,2,18,1,1,0,1,NA,NA,NA,NA,NA,NA,NA,"69002"
"323",9051,"lyon","9051 - ANDREI SAKHAROV","373 AV. ANDREI SAKHAROV",TRUE,TRUE,"OPEN","2023-10-06T11:47:23Z",TRUE,FALSE,NA,45.786546,4.797107,12,0,12,0,0,0,0,12,0,12,0,0,0,0,NA,NA,NA,NA,NA,NA,NA,"69008"
"324",7012,"lyon","7012 - MERIEUX / PAVILLONS","246 RUE MARCEL MERIEUX",FALSE,FALSE,"OPEN","2023-10-06T11:49:46Z",TRUE,FALSE,NA,45.7291359373026,4.8301170098658,16,11,5,6,5,0,5,16,11,5,6,5,0,5,NA,NA,NA,NA,NA,NA,NA,"69005"
"325",7049,"lyon","7049 - CITÉ SCOLAIRE INTERNATIONALE","27–33 Rue Alexander Fleming 69007 Lyon",FALSE,FALSE,"OPEN","2023-10-06T11:49:39Z",TRUE,FALSE,NA,45.727951,4.823563,25,17,6,13,6,0,6,25,17,6,13,6,0,6,NA,NA,NA,NA,NA,NA,NA," 69007"
"326",6005,"lyon","6005 - PLACE EDGAR QUINET","Devant le lycée",TRUE,FALSE,"OPEN","2023-10-06T11:49:05Z",TRUE,FALSE,NA,45.765811,4.844767,20,1,19,0,1,0,1,20,1,19,0,1,0,1,NA,NA,NA,NA,NA,NA,NA,"69100"
"327",10102,"lyon","10102 - DOUA / GASTON BERGER","ave G. Berger",FALSE,FALSE,"OPEN","2023-10-06T11:49:52Z",TRUE,FALSE,NA,45.781008,4.871219,30,10,20,7,3,0,3,30,10,20,7,3,0,3,NA,NA,NA,NA,NA,NA,NA,"69006"
"328",6023,"lyon","6023 - QUAI SARRAIL","Niveau rue de Sèze",TRUE,FALSE,"OPEN","2023-10-06T11:45:07Z",TRUE,FALSE,NA,45.766821,4.841095,14,2,12,1,1,0,1,14,2,12,1,1,0,1,NA,NA,NA,NA,NA,NA,NA,"69100"
"329",7034,"lyon","7034 - PISCINE DU RHÔNE","Sur le quai devant l'entrée de la piscine",TRUE,FALSE,"OPEN","2023-10-06T11:49:47Z",TRUE,FALSE,NA,45.753705,4.838283,31,29,2,8,21,0,21,31,29,2,8,21,0,21,NA,NA,NA,NA,NA,NA,NA,"69004"
"330",1020,"lyon","1020 - TERREAUX / CHENAVARD","Rue Chenavard - Côté place des Terreaux",TRUE,FALSE,"OPEN","2023-10-06T11:47:52Z",TRUE,FALSE,NA,45.766763,4.832942,18,0,17,1,0,0,0,18,0,17,1,0,0,0,NA,NA,NA,NA,NA,NA,NA," 69001"
"331",10064,"lyon","10064 - 4 AOÛT 1789","Angle Rue Rollet/Blanqui",FALSE,FALSE,"OPEN","2023-10-06T11:49:01Z",TRUE,FALSE,NA,45.764812,4.884311,15,8,6,5,3,0,3,15,8,6,5,3,0,3,NA,NA,NA,NA,NA,NA,NA," 69100"
"332",8050,"lyon","8050 - BATAILLE / KRÜGER","",FALSE,FALSE,"OPEN","2023-10-06T11:46:34Z",TRUE,FALSE,NA,45.736219,4.879855,18,6,12,1,5,0,5,18,6,12,1,5,0,5,NA,NA,NA,NA,NA,NA,NA,"69008"
"333",10015,"lyon","10015 - POUDRETTE / MUSSET","",FALSE,FALSE,"OPEN","2023-10-06T11:46:15Z",TRUE,FALSE,NA,45.757936,4.921156,18,2,16,1,1,0,1,18,2,16,1,1,0,1,NA,NA,NA,NA,NA,NA,NA,"69005"
"334",3033,"lyon","3033 - OL STADIUM ÉPHÉMÈRE","",TRUE,FALSE,"OPEN","2023-10-06T11:48:08Z",TRUE,TRUE,NA,45.7679258135543,4.98117413078694,121,24,97,21,3,0,3,21,0,21,0,0,0,0,100,24,76,21,3,0,3,"69006"
"335",7010,"lyon","7010 - CENTRE BERTHELOT","Rue Pasteur - Angle avenue Berthelot",TRUE,FALSE,"OPEN","2023-10-06T11:49:20Z",TRUE,FALSE,NA,45.747358,4.836009,19,0,19,0,0,0,0,19,0,19,0,0,0,0,NA,NA,NA,NA,NA,NA,NA,"69003"
"336",30001,"lyon","30001 - RILLIEUX - CANELLAS","",TRUE,TRUE,"OPEN","2023-10-06T11:40:15Z",TRUE,FALSE,NA,45.805207,4.88477,12,8,4,6,2,0,2,12,8,4,6,2,0,2,NA,NA,NA,NA,NA,NA,NA,"69100"
"337",8020,"lyon","8020 - MOULIN A VENT","",TRUE,FALSE,"OPEN","2023-10-06T11:45:54Z",TRUE,FALSE,NA,45.729714,4.854338,22,5,17,0,5,0,5,22,5,17,0,5,0,5,NA,NA,NA,NA,NA,NA,NA,"69006"
"338",10101,"lyon","10101 - EINSTEIN / 11 NOVEMBRE 1918","43 BVD DU 11 NOVEMBRE 1918 (VILLEURBANNE)",TRUE,FALSE,"OPEN","2023-10-06T11:49:07Z",TRUE,TRUE,NA,45.779429,4.873992,94,20,74,10,10,0,10,34,19,15,9,10,0,10,60,1,59,1,0,0,0,"69009"
"339",11001,"lyon","11001 - CALUIRE - GARE DE CUIRE","2 RUE CLAUDE BERNARD (CALUIRE ET CUIRE)",TRUE,TRUE,"OPEN","2023-10-06T11:46:56Z",TRUE,FALSE,NA,45.785796,4.833733,16,4,12,4,0,0,0,16,4,12,4,0,0,0,NA,NA,NA,NA,NA,NA,NA," 69300"
"340",7022,"lyon","7022 - JAURÈS / LAGRANGE","16 Impasse du Pré Gaudry 69007 Lyon",TRUE,FALSE,"OPEN","2023-10-06T11:49:51Z",TRUE,FALSE,NA,45.743975,4.841463,30,11,19,5,6,0,6,30,11,19,5,6,0,6,NA,NA,NA,NA,NA,NA,NA,"69001"
"341",3102,"lyon","3102 - DOCTEUR LONG / CAILLE","135 COURS DOCTEUR LONG",FALSE,FALSE,"OPEN","2023-10-06T11:40:49Z",TRUE,FALSE,NA,45.75254,4.894272,16,11,5,1,10,0,10,16,11,5,1,10,0,10,NA,NA,NA,NA,NA,NA,NA,"69100"
"342",16004,"lyon","16004 - VENISSIEUX PARILLY","",TRUE,FALSE,"OPEN","2023-10-06T11:46:28Z",TRUE,FALSE,NA,45.719746,4.888457,25,5,20,0,5,0,5,25,5,20,0,5,0,5,NA,NA,NA,NA,NA,NA,NA," 69200"
"343",10088,"lyon","10088 - 4 AOÛT 1789 / PRESSENSÉ","COURS EMILE ZOLA (VILLEURBANNE)",TRUE,FALSE,"OPEN","2023-10-06T11:49:30Z",TRUE,FALSE,NA,45.76611,4.898539,19,4,15,0,4,0,4,19,4,15,0,4,0,4,NA,NA,NA,NA,NA,NA,NA," 69100"
"344",7020,"lyon","7020 - PARC DE GERLAND","Allée Pierre de Coubertin",FALSE,FALSE,"OPEN","2023-10-06T11:46:36Z",TRUE,FALSE,NA,45.724352,4.826821,26,10,16,4,6,0,6,26,10,16,4,6,0,6,NA,NA,NA,NA,NA,NA,NA,"69003"
"345",10031,"lyon","10031 - CROIX LUIZET","sur la place Croix Luizet",FALSE,FALSE,"OPEN","2023-10-06T11:49:04Z",TRUE,FALSE,NA,45.780679,4.88356,22,12,10,5,7,0,7,22,12,10,5,7,0,7,NA,NA,NA,NA,NA,NA,NA,"69008"
"346",5054,"lyon","5054 - CHAMPVERT","192 AV. BARTHELEMY BUYER",FALSE,TRUE,"OPEN","2023-10-06T11:43:05Z",TRUE,FALSE,NA,45.763906,4.792643,18,0,18,0,0,0,0,18,0,18,0,0,0,0,NA,NA,NA,NA,NA,NA,NA,"69500"
"347",7025,"lyon","7025 - LACOUR / ARTILLERIE","",TRUE,FALSE,"OPEN","2023-10-06T11:49:56Z",TRUE,FALSE,NA,45.729454,4.844228,20,6,14,1,5,0,5,20,6,14,1,5,0,5,NA,NA,NA,NA,NA,NA,NA,"69007"
"348",4011,"lyon","4011 - PLACE JOANNÈS AMBRE","Place Jean Ambre",TRUE,TRUE,"OPEN","2023-10-06T11:48:09Z",TRUE,FALSE,NA,45.781574,4.832866,20,3,17,3,0,0,0,20,3,17,3,0,0,0,NA,NA,NA,NA,NA,NA,NA," 69300"
"349",1002,"lyon","1002 - OPÉRA","Angle rue Serlin - Angle place de la comédie",TRUE,FALSE,"OPEN","2023-10-06T11:50:01Z",TRUE,FALSE,NA,45.767611,4.836619,41,6,32,4,5,0,5,41,6,32,4,5,0,5,NA,NA,NA,NA,NA,NA,NA," 69001"
"350",2042,"lyon","2042 - JOFFRE / VAUBECOUR","43 RUE VAUBECOUR",FALSE,FALSE,"OPEN","2023-10-06T11:40:47Z",TRUE,FALSE,NA,45.751873,4.824763,20,11,9,2,9,0,9,20,11,9,2,9,0,9,NA,NA,NA,NA,NA,NA,NA,"69008"
"351",16003,"lyon","16003 - VÉNISSIEUX - JOLIOT CURIE / SEMBAT","",FALSE,FALSE,"OPEN","2023-10-06T11:45:48Z",TRUE,FALSE,NA,45.71532,4.878337,25,13,12,6,7,0,7,25,13,12,6,7,0,7,NA,NA,NA,NA,NA,NA,NA,"69006"
"352",9032,"lyon","9032 - PLACE DU PORT MOUTON","Quai Arloing, Côté Saône",TRUE,FALSE,"OPEN","2023-10-06T11:49:08Z",TRUE,FALSE,NA,45.773815,4.809566,18,11,7,11,0,0,0,18,11,7,11,0,0,0,NA,NA,NA,NA,NA,NA,NA,"69006"
"353",14005,"lyon","14005 - BRON - UNIVERSITE","",TRUE,FALSE,"OPEN","2023-10-06T11:45:06Z",TRUE,FALSE,NA,45.72284,4.915219,30,11,18,8,3,0,3,30,11,18,8,3,0,3,NA,NA,NA,NA,NA,NA,NA,"69002"
"354",11002,"lyon","11002 - CALUIRE - SAINT-CLAIR","49 COURS ARISTIDE BRIAND (CALUIRE)",TRUE,FALSE,"OPEN","2023-10-06T11:47:33Z",TRUE,FALSE,NA,45.785465,4.847838,20,2,18,2,0,0,0,20,2,18,2,0,0,0,NA,NA,NA,NA,NA,NA,NA,"69006"
"355",3003,"lyon","3003 - PART-DIEU / DERUELLE","Face rue Massena, entrée centre commercial",TRUE,FALSE,"OPEN","2023-10-06T11:48:46Z",TRUE,FALSE,NA,45.762974,4.855071,30,30,0,17,13,0,13,30,30,0,17,13,0,13,NA,NA,NA,NA,NA,NA,NA," 69003"
"356",9002,"lyon","9002 - MAIRIE DU 9E","Prox. métro Valmy",TRUE,FALSE,"OPEN","2023-10-06T11:47:06Z",TRUE,FALSE,NA,45.774241,4.805676,27,20,7,12,8,0,8,27,20,7,12,8,0,8,NA,NA,NA,NA,NA,NA,NA,"69100"
"357",10116,"lyon","10116 - BLUM / FAYS","",FALSE,FALSE,"OPEN","2023-10-06T11:47:30Z",TRUE,FALSE,NA,45.760526,4.905877,16,16,0,8,8,0,8,16,16,0,8,8,0,8,NA,NA,NA,NA,NA,NA,NA," 69100"
"358",10010,"lyon","10010 - BAUDIN / ZOLA","12 rue baudin
Villeurbanne",FALSE,FALSE,"CLOSED","2023-10-06T11:45:36Z",TRUE,FALSE,NA,45.7651045967603,4.90512854660767,16,0,0,0,0,0,0,16,0,0,0,0,0,0,NA,NA,NA,NA,NA,NA,NA,"69009"
"359",10039,"lyon","10039 - BOUVIER","Rue Professeur Bouvier/Angle rue du 8 mai 1945",FALSE,FALSE,"OPEN","2023-10-06T11:48:43Z",TRUE,FALSE,NA,45.779487,4.891692,16,10,6,3,7,0,7,16,10,6,3,7,0,7,NA,NA,NA,NA,NA,NA,NA,"69008"
"360",6006,"lyon","6006 - BOULEVARD DES BELGES","Boulevard des Belges - Angle rue Duquesne",TRUE,FALSE,"OPEN","2023-10-06T11:47:27Z",TRUE,FALSE,NA,45.773304,4.852001,15,5,10,3,2,0,2,15,5,10,3,2,0,2,NA,NA,NA,NA,NA,NA,NA,"69003"
"361",12005,"lyon","12005 - VAULX - VILLAGE","",FALSE,FALSE,"OPEN","2023-10-06T11:40:29Z",TRUE,FALSE,NA,45.786262,4.926788,20,13,7,6,7,0,7,20,13,7,6,7,0,7,NA,NA,NA,NA,NA,NA,NA," 69120"
"362",10002,"lyon","10002 - INSA","Avenue Albert Einstein au niveau du virage",TRUE,FALSE,"OPEN","2023-10-06T11:49:51Z",TRUE,TRUE,NA,45.782222,4.876951,115,43,72,27,16,0,16,55,13,42,7,6,0,6,60,30,30,20,10,0,10,"69006"
"363",7016,"lyon","7016 - PLACE SAINT LOUIS","Rue de la Madeleine - Angle rue St Lazarre",FALSE,FALSE,"OPEN","2023-10-06T11:49:17Z",TRUE,FALSE,NA,45.748925,4.847714,15,0,15,0,0,0,0,15,0,15,0,0,0,0,NA,NA,NA,NA,NA,NA,NA,"69007"
"364",5008,"lyon","5008 - SAINTE-IRÉNÉE","Place Sainte Irénée",FALSE,TRUE,"OPEN","2023-10-06T11:41:20Z",TRUE,FALSE,NA,45.754978,4.812427,20,0,20,0,0,0,0,20,0,20,0,0,0,0,NA,NA,NA,NA,NA,NA,NA," 69005"
"365",27001,"lyon","27001 - COLLONGES - GARE","",TRUE,FALSE,"OPEN","2023-10-06T11:47:59Z",TRUE,FALSE,NA,45.830874,4.846988,24,8,16,0,8,0,8,24,8,16,0,8,0,8,NA,NA,NA,NA,NA,NA,NA," 69660"
"366",34002,"lyon","34002 - NEUVILLE - STADE","",FALSE,FALSE,"OPEN","2023-10-06T11:45:37Z",TRUE,FALSE,NA,45.870877,4.839595,15,4,11,1,3,0,3,15,4,11,1,3,0,3,NA,NA,NA,NA,NA,NA,NA,"69003"
"367",12004,"lyon","12004 - VAULX - HÔTEL DE VILLE","",TRUE,FALSE,"CLOSED","2023-10-06T11:40:31Z",TRUE,FALSE,NA,45.778178,4.920544,30,0,0,0,0,0,0,30,0,0,0,0,0,0,NA,NA,NA,NA,NA,NA,NA,"69009"
"368",10054,"lyon","10054 - STALINGRAD / MELIÈS","RUE GEORGES MELIES (VILLEURBANNE)",FALSE,FALSE,"OPEN","2023-10-06T11:48:46Z",TRUE,FALSE,NA,45.776715,4.859573,24,16,7,7,9,0,9,24,16,7,7,9,0,9,NA,NA,NA,NA,NA,NA,NA,"69006"
"369",1021,"lyon","1021 - TERREAUX / BEAUX ARTS","Rue Herriot - Devant Musée des Beaux Arts",TRUE,FALSE,"OPEN","2023-10-06T11:49:59Z",TRUE,FALSE,NA,45.767062,4.834294,11,2,8,0,3,0,3,11,2,8,0,3,0,3,NA,NA,NA,NA,NA,NA,NA," 69001"
"370",2007,"lyon","2007 - PATINOIRE CHARLEMAGNE","Angle rue Casimir Périer",TRUE,FALSE,"OPEN","2023-10-06T11:48:37Z",TRUE,FALSE,NA,45.742617,4.820464,37,34,3,25,9,0,9,37,34,3,25,9,0,9,NA,NA,NA,NA,NA,NA,NA,"69004"
"371",8004,"lyon","8004 - MAIRIE DU 8E","Devant la mairie du 8e",FALSE,FALSE,"OPEN","2023-10-06T11:48:28Z",TRUE,FALSE,NA,45.735158,4.872803,21,6,14,3,3,0,3,21,6,14,3,3,0,3,NA,NA,NA,NA,NA,NA,NA,"69003"
"372",3044,"lyon","3044 - QUAI AUGAGNEUR","Entre rue de Bonnel et rue Rabelais",TRUE,FALSE,"OPEN","2023-10-06T11:42:46Z",TRUE,FALSE,NA,45.762023,4.841053,19,9,10,2,7,0,7,19,9,10,2,7,0,7,NA,NA,NA,NA,NA,NA,NA," 69003"
"373",33001,"lyon","33001 - ALBIGNY - GARE","",TRUE,FALSE,"OPEN","2023-10-06T11:43:46Z",TRUE,FALSE,NA,45.874978,4.833024,18,5,13,1,4,0,4,18,5,13,1,4,0,4,NA,NA,NA,NA,NA,NA,NA," 69250"
"374",16005,"lyon","16005 - VENISSIEUX - GARE","",TRUE,FALSE,"OPEN","2023-10-06T11:47:45Z",TRUE,FALSE,NA,45.708509,4.886939,25,1,24,0,1,0,1,25,1,24,0,1,0,1,NA,NA,NA,NA,NA,NA,NA," 69200"
"375",10019,"lyon","10019 - 4 AOUT / RACINE","",FALSE,FALSE,"OPEN","2023-10-06T11:43:52Z",TRUE,FALSE,NA,45.764489,4.877894,30,0,30,0,0,0,0,30,0,30,0,0,0,0,NA,NA,NA,NA,NA,NA,NA," 69100"
"376",10025,"lyon","10025 - TOTEM","",TRUE,FALSE,"OPEN","2023-10-06T11:49:32Z",TRUE,FALSE,NA,45.763652,4.873158,16,1,15,1,0,0,0,16,1,15,1,0,0,0,NA,NA,NA,NA,NA,NA,NA," 69100"
"377",8034,"lyon","8034 - BERTHELOT / VILLON","Angle avenue Berthelot",FALSE,FALSE,"OPEN","2023-10-06T11:49:21Z",TRUE,FALSE,NA,45.738301,4.862727,13,8,5,5,3,0,3,13,8,5,5,3,0,3,NA,NA,NA,NA,NA,NA,NA," 69008"
"378",3084,"lyon","3084 - DESAIX","143 RUE PAUL BERT",FALSE,FALSE,"OPEN","2023-10-06T11:43:01Z",TRUE,FALSE,NA,45.757268,4.855193,28,6,21,4,2,0,2,28,6,21,4,2,0,2,NA,NA,NA,NA,NA,NA,NA,"69002"
"379",5026,"lyon","5026 - RUE DE LA BALEINE","Angle quai Romain Rolland",FALSE,FALSE,"OPEN","2023-10-06T11:45:23Z",TRUE,FALSE,NA,45.763383,4.829024,14,0,14,0,0,0,0,14,0,14,0,0,0,0,NA,NA,NA,NA,NA,NA,NA," 69005"
"380",3038,"lyon","3038 - VIVIER MERLE / PAUL BERT EST","Devant le bâtiment du Klesia",TRUE,FALSE,"OPEN","2023-10-06T11:49:10Z",TRUE,FALSE,NA,45.757147,4.858975,20,13,7,3,10,0,10,20,13,7,3,10,0,10,NA,NA,NA,NA,NA,NA,NA,"69009"
"381",11005,"lyon","11005 - CALUIRE - PASSERELLE DE LA PAIX","",TRUE,FALSE,"OPEN","2023-10-06T11:45:43Z",TRUE,FALSE,NA,45.787941,4.853035,25,0,25,0,0,0,0,25,0,25,0,0,0,0,NA,NA,NA,NA,NA,NA,NA," 69300"
"382",3019,"lyon","3019 - PART-DIEU / DERUELLE","Intersection Bd Vivier Merle - Rue Eugène Deruelle Lyon 3",TRUE,FALSE,"OPEN","2023-10-06T11:49:47Z",TRUE,FALSE,NA,45.76326,4.85749,39,32,7,15,17,0,17,39,32,7,15,17,0,17,NA,NA,NA,NA,NA,NA,NA,"69004"
"383",3079,"lyon","3079 - PLACE LOUISE","4 PLACE LOUISE",FALSE,FALSE,"OPEN","2023-10-06T11:48:17Z",TRUE,FALSE,NA,45.75118,4.884795,16,0,16,0,0,0,0,16,0,16,0,0,0,0,NA,NA,NA,NA,NA,NA,NA,"69006"
"384",2025,"lyon","2025 - MERCIÈRE / FERRANDIÈRE","Entre rue de Brest et rue Mercière",FALSE,FALSE,"OPEN","2023-10-06T11:49:59Z",TRUE,FALSE,NA,45.762054,4.833194,10,0,10,0,0,0,0,10,0,10,0,0,0,0,NA,NA,NA,NA,NA,NA,NA," 69002"
"385",7004,"lyon","7004 - MAIRIE DU 7E","Place Jean Macé - Face à la mairie",TRUE,FALSE,"OPEN","2023-10-06T11:49:53Z",TRUE,FALSE,NA,45.74656,4.842265,30,0,30,0,0,0,0,30,0,30,0,0,0,0,NA,NA,NA,NA,NA,NA,NA," 69007"
"386",5031,"lyon","5031- MÉNIVAL / JOLIOT CURIE","49 RUE JOLIOT CURIE",FALSE,TRUE,"OPEN","2023-10-06T11:47:05Z",TRUE,FALSE,NA,45.754654,4.78821,20,0,20,0,0,0,0,20,0,20,0,0,0,0,NA,NA,NA,NA,NA,NA,NA,"69008"
"387",2039,"lyon","2039 - CHARITÉ / RÉCAMIER","86 RUE DE LA CHARITE",FALSE,FALSE,"OPEN","2023-10-06T11:47:20Z",TRUE,FALSE,NA,45.749257,4.82984,17,14,1,6,10,0,10,17,14,1,6,10,0,10,NA,NA,NA,NA,NA,NA,NA,"69003"
"388",12003,"lyon","12003 - VAULX - BIBLIOTHEQUE","",FALSE,FALSE,"OPEN","2023-10-06T11:48:04Z",TRUE,FALSE,NA,45.757092,4.92731,15,1,14,1,0,0,0,15,1,14,1,0,0,0,NA,NA,NA,NA,NA,NA,NA," 69120"
"389",25001,"lyon","25001 - ST CYR","",TRUE,TRUE,"OPEN","2023-10-06T11:45:22Z",TRUE,FALSE,NA,45.799742,4.819607,12,0,12,0,0,0,0,12,0,12,0,0,0,0,NA,NA,NA,NA,NA,NA,NA,"69100"
"390",5041,"lyon","5041 - L'HOMME DE LA ROCHE","55 QUAI PIERRE SCIZE",TRUE,FALSE,"OPEN","2023-10-06T11:47:15Z",TRUE,FALSE,NA,45.766576,4.820214,21,1,20,1,0,0,0,21,1,20,1,0,0,0,NA,NA,NA,NA,NA,NA,NA,"69004"
"391",5009,"lyon","5009 - PLACE ENNEMOND FOUSSERET","angle quai de Bondy",TRUE,FALSE,"OPEN","2023-10-06T11:43:47Z",TRUE,FALSE,NA,45.764695,4.828969,16,8,8,2,6,0,6,16,8,8,2,6,0,6,NA,NA,NA,NA,NA,NA,NA,"69003"
"392",3034,"lyon","3034 - GARIBALDI / PENSIONNAT","",TRUE,FALSE,"OPEN","2023-10-06T11:47:26Z",TRUE,FALSE,NA,45.754727,4.85346,30,18,12,11,7,0,7,30,18,12,11,7,0,7,NA,NA,NA,NA,NA,NA,NA,"69007"
"393",8030,"lyon","8030 - LAËNNEC","Angle rue Nungesser et Coli",FALSE,FALSE,"OPEN","2023-10-06T11:48:28Z",TRUE,FALSE,NA,45.741425,4.879733,16,9,7,4,5,0,5,16,9,7,4,5,0,5,NA,NA,NA,NA,NA,NA,NA,"69100"
"394",5036,"lyon","5036 - LA SALETTE","104 RUE DU COMMANDANT CHARCOT",FALSE,TRUE,"OPEN","2023-10-06T11:46:06Z",TRUE,FALSE,NA,45.749627,4.795546,15,7,8,7,0,0,0,15,7,8,7,0,0,0,NA,NA,NA,NA,NA,NA,NA," 69005"
"395",8003,"lyon","8003 - CLAUDE BERNARD LYON I","Devant entrée de la fac",FALSE,FALSE,"OPEN","2023-10-06T11:46:55Z",TRUE,FALSE,NA,45.738135,4.886885,16,1,15,1,0,0,0,16,1,15,1,0,0,0,NA,NA,NA,NA,NA,NA,NA," 69008"
"396",3100,"lyon","3100 - SISLEY / DAUPHINE","61 RUE DU DAUPHINE",TRUE,FALSE,"OPEN","2023-10-06T11:50:00Z",TRUE,FALSE,NA,45.7524835251712,4.8687553636982,17,1,16,1,0,0,0,17,1,16,1,0,0,0,NA,NA,NA,NA,NA,NA,NA,"69008"
"397",28002,"lyon","28002 - FONTAINES S/S - GAMBETTA","",FALSE,FALSE,"OPEN","2023-10-06T11:48:59Z",TRUE,FALSE,NA,45.835406,4.8457,20,6,14,1,5,0,5,20,6,14,1,5,0,5,NA,NA,NA,NA,NA,NA,NA,"69003"
"398",10027,"lyon","10027 - MAIRIE DE VILLEURBANNE","Avenue Aristide Briand, en face de la mairie",TRUE,FALSE,"OPEN","2023-10-06T11:47:59Z",TRUE,FALSE,NA,45.766861,4.880059,26,0,26,0,0,0,0,26,0,26,0,0,0,0,NA,NA,NA,NA,NA,NA,NA," 69100"
"399",1012,"lyon","1012 - AMPÈRE / BOURSE","Rue de la Bourse - Long du Collège-Lycée Ampère",TRUE,FALSE,"OPEN","2023-10-06T11:49:57Z",TRUE,FALSE,NA,45.765789,4.836906,26,15,9,7,9,0,9,26,15,9,7,9,0,9,NA,NA,NA,NA,NA,NA,NA,"69006"
"400",10036,"lyon","10036 - STALINGRAD","Boulevard Stalingrad/angle rue Charlie Chaplin",FALSE,FALSE,"OPEN","2023-10-06T11:49:10Z",TRUE,FALSE,NA,45.77435,4.859157,21,12,9,4,8,0,8,21,12,9,4,8,0,8,NA,NA,NA,NA,NA,NA,NA," 69100"
"401",2018,"lyon","2018 - HOTEL DIEU / PONT DE LA GUILLOTIERE","",TRUE,FALSE,"OPEN","2023-10-06T11:49:10Z",TRUE,FALSE,NA,45.757571,4.837183,50,24,26,11,13,0,13,50,24,26,11,13,0,13,NA,NA,NA,NA,NA,NA,NA," 69002"
"402",2030,"lyon","2030 - RÉPUBLIQUE / POULAILLERIE","Angle Poulaillerie / République",TRUE,FALSE,"OPEN","2023-10-06T11:48:49Z",TRUE,FALSE,NA,45.764079,4.835554,32,11,21,2,9,0,9,32,11,21,2,9,0,9,NA,NA,NA,NA,NA,NA,NA,"69001"
"403",8051,"lyon","8051 - HÔPITAL SAINT-JEAN DE DIEU","303 ROUTE DE VIENNE (VENISSIEUX)",FALSE,FALSE,"OPEN","2023-10-06T11:47:55Z",TRUE,FALSE,NA,45.724172,4.854165,20,15,5,11,4,0,4,20,15,5,11,4,0,4,NA,NA,NA,NA,NA,NA,NA,"69008"
"404",7057,"lyon","7057 - JAURES / BOLLIER","217b–221 Avenue Jean Jaurès 69007 Lyon",TRUE,FALSE,"OPEN","2023-10-06T11:49:06Z",TRUE,FALSE,NA,45.734712,4.835486,34,22,11,10,13,0,13,34,22,11,10,13,0,13,NA,NA,NA,NA,NA,NA,NA," 69007"
"405",17001,"lyon","17001 - ST FONS - ARSENAL","",FALSE,FALSE,"OPEN","2023-10-06T11:49:57Z",TRUE,FALSE,NA,45.712362,4.855202,27,8,19,2,6,0,6,27,8,19,2,6,0,6,NA,NA,NA,NA,NA,NA,NA," 69190"
"406",7052,"lyon","7052 - PARC BLANDAN","Rue de l'Epargne",FALSE,FALSE,"OPEN","2023-10-06T11:48:48Z",TRUE,FALSE,NA,45.745939,4.851214,25,4,21,3,1,0,1,25,4,21,3,1,0,1,NA,NA,NA,NA,NA,NA,NA," 69007"
"407",7001,"lyon","7001 - PLACE GABRIEL PÉRI","Place Gabriel Péri",TRUE,FALSE,"OPEN","2023-10-06T11:48:42Z",TRUE,FALSE,NA,45.754875,4.843627,20,6,14,3,3,0,3,20,6,14,3,3,0,3,NA,NA,NA,NA,NA,NA,NA,"69007"
"408",6036,"lyon","6036 - MUSÉE D'ART CONTEMPORAIN","Allée A. Lignon",TRUE,FALSE,"OPEN","2023-10-06T11:48:22Z",TRUE,FALSE,NA,45.783885,4.852156,23,16,7,12,4,0,4,23,16,7,12,4,0,4,NA,NA,NA,NA,NA,NA,NA,"69007"
"409",7005,"lyon","7005 - DEBOURG","Avenue Debourg - Angle avenue Jean Jaurès",FALSE,FALSE,"OPEN","2023-10-06T11:48:30Z",TRUE,FALSE,NA,45.73182,4.833996,20,17,3,11,6,0,6,20,17,3,11,6,0,6,NA,NA,NA,NA,NA,NA,NA,"69005"
"410",8052,"lyon","8052 - CLINIQUE MONPLAISIR","2 AV. DES FRERES LUMIERE",FALSE,FALSE,"OPEN","2023-10-06T11:49:55Z",TRUE,FALSE,NA,45.747091,4.860196,16,6,10,4,2,0,2,16,6,10,4,2,0,2,NA,NA,NA,NA,NA,NA,NA,"69006"
"411",6011,"lyon","6011- MAIRIE DU 6E","Angle rue Boileau",FALSE,FALSE,"OPEN","2023-10-06T11:48:57Z",TRUE,FALSE,NA,45.768395,4.849402,23,0,23,0,0,0,0,23,0,23,0,0,0,0,NA,NA,NA,NA,NA,NA,NA," 69006"
"412",7061,"lyon","7061 - JAURES / UNIVERSITE","64 AV. JEAN JAURES",FALSE,FALSE,"OPEN","2023-10-06T11:48:04Z",TRUE,FALSE,NA,45.748545,4.843249,20,0,20,0,0,0,0,20,0,20,0,0,0,0,NA,NA,NA,NA,NA,NA,NA,"69004"
"413",10013,"lyon","10013 - CUSSET","103 RUE PIERRE VOYANT (VILLEURBANNE)",FALSE,FALSE,"OPEN","2023-10-06T11:45:07Z",TRUE,FALSE,NA,45.764961,4.901018,20,2,18,1,1,0,1,20,2,18,1,1,0,1,NA,NA,NA,NA,NA,NA,NA," 69100"
"414",2005,"lyon","2005 - CONFLUENCE HÔTEL DE RÉGION","101 cours Charlemagne Lyon 2 direction centre ville. Devant l'hôtel de Région",TRUE,FALSE,"OPEN","2023-10-06T11:49:08Z",TRUE,FALSE,NA,45.740675,4.819284,32,24,7,17,8,0,8,32,24,7,17,8,0,8,NA,NA,NA,NA,NA,NA,NA,"69004"
"415",1032,"lyon","1032 - PIZAY","17 RUE PIZAY",TRUE,FALSE,"OPEN","2023-10-06T11:44:41Z",TRUE,FALSE,NA,45.767165,4.836334,22,6,15,5,2,0,2,22,6,15,5,2,0,2,NA,NA,NA,NA,NA,NA,NA," 69001"
"416",5030,"lyon","5030 - CHARCOT / RÉSIDENCE UNIVERSITAIRE","Angle rue du fort Ste Irénée / Charcot",TRUE,TRUE,"OPEN","2023-10-06T11:46:24Z",TRUE,FALSE,NA,45.755054,4.807811,32,1,31,1,0,0,0,32,1,31,1,0,0,0,NA,NA,NA,NA,NA,NA,NA,"69100"
"417",8039,"lyon","8039 - PIERRE DELORE","97 ROUTE DE VIENNE",TRUE,FALSE,"OPEN","2023-10-06T11:47:56Z",TRUE,FALSE,NA,45.738617,4.852412,20,2,18,2,0,0,0,20,2,18,2,0,0,0,NA,NA,NA,NA,NA,NA,NA," 69008"
"418",7062,"lyon","7062 - GARIBALDI / DOMER","51 RUE DOMER",TRUE,FALSE,"OPEN","2023-10-06T11:48:08Z",TRUE,FALSE,NA,45.747735,4.85162,19,1,18,1,0,0,0,19,1,18,1,0,0,0,NA,NA,NA,NA,NA,NA,NA," 69007"
"419",2002,"lyon","2002 - BELLECOUR / ST EXUPÉRY","PLACE BELLECOUR Côté rue Lintier",TRUE,FALSE,"OPEN","2023-10-06T11:49:34Z",TRUE,FALSE,NA,45.758149,4.830428,40,13,27,6,7,0,7,40,13,27,6,7,0,7,NA,NA,NA,NA,NA,NA,NA," 69002"
"420",3087,"lyon","3087 - PART-DIEU / GARIBALDI","4 BVD EUGENE DERUELLE",TRUE,FALSE,"OPEN","2023-10-06T11:49:20Z",TRUE,FALSE,NA,45.762768,4.852563,20,15,3,7,10,0,10,20,15,3,7,10,0,10,NA,NA,NA,NA,NA,NA,NA,"69003"
"421",9004,"lyon","9004 - GARE DE VAISE","Face entrée de la gare",TRUE,FALSE,"OPEN","2023-10-06T11:45:44Z",TRUE,FALSE,NA,45.779786,4.804666,22,3,19,1,2,0,2,22,3,19,1,2,0,2,NA,NA,NA,NA,NA,NA,NA,"69200"
"422",8002,"lyon","8002- PLACE AMBROISE COURTOIS","Face au cours Albert Thomas",TRUE,FALSE,"OPEN","2023-10-06T11:49:25Z",TRUE,FALSE,NA,45.745296,4.871604,20,2,18,1,1,0,1,20,2,18,1,1,0,1,NA,NA,NA,NA,NA,NA,NA,"69300"
"423",10007,"lyon","10007 - PIATON / CONDORCET","Av Piaton / angle Condorcet",FALSE,FALSE,"OPEN","2023-10-06T11:47:36Z",TRUE,FALSE,NA,45.774204,4.867512,20,12,8,8,4,0,4,20,12,8,8,4,0,4,NA,NA,NA,NA,NA,NA,NA," 69100"
"424",9033,"lyon","9033 - GORGE DE LOUP","49 RUE SGT BERTHET",TRUE,FALSE,"OPEN","2023-10-06T11:47:40Z",TRUE,FALSE,NA,45.767484,4.805626,40,1,39,0,1,0,1,40,1,39,0,1,0,1,NA,NA,NA,NA,NA,NA,NA,"69100"
"425",5001,"lyon","5001 - PLACE VARILLON (FUNICULAIRE ST JUST)","Devant le n°63 rue de Trion",TRUE,TRUE,"OPEN","2023-10-06T11:44:38Z",TRUE,FALSE,NA,45.757319,4.815064,23,0,23,0,0,0,0,23,0,23,0,0,0,0,NA,NA,NA,NA,NA,NA,NA,"69800"
"426",3018,"lyon","3018 - CRÉQUI / VOLTAIRE","Angle rue Paul Bert",TRUE,FALSE,"OPEN","2023-10-06T11:42:47Z",TRUE,FALSE,NA,45.756596,4.848442,30,0,30,0,0,0,0,30,0,30,0,0,0,0,NA,NA,NA,NA,NA,NA,NA,"69100"
